관리번호,공원명,공원구분,소재지도로명주소,소재지지번주소,위도,경도,공원면적,공원보유시설(운동시설),공원보유시설(유희시설),공원보유시설(편익시설),공원보유시설(교양시설),공원보유시설(기타시설),지정고시일,관리기관명,전화번호,데이터기준일자
41500-00008,꿈나무공원,어린이공원,경기도 이천시 설봉로 30번길 22,경기도 이천시 중리동 15,37.2785611,127.4388194,2526,,조합놀이대,,,,1989-08-07,경기도 이천시청,031-645-3844,2023-03-03
41500-00009,남천공원,어린이공원,경기도 이천시 어재연로 10번길 25,경기도 이천시 중리동 210,37.2780103,127.444436,3830,,조합놀이대,화장실,,,1989-08-07,경기도 이천시청,031-645-3844,2023-03-03
41500-00010,향교공원,어린이공원,경기도 이천시 설봉로 81번길 34,경기도 이천시 창전동 408,37.2849017,127.4375887,1757,,조합놀이대,,,,1989-08-07,경기도 이천시청,031-645-3844,2023-03-03
41500-00012,달맞이공원,어린이공원,경기도 이천시 향교로 53번길 23,경기도 이천시 창전동 423,37.2858539,127.4432146,1650,농구대,조합놀이대,,,,1989-08-07,경기도 이천시청,031-645-3844,2023-03-03
41500-00013,체육공원,어린이공원,경기도 이천시 설봉로 174(창전동),경기도 이천시 창전동 432-10,37.2859688,127.4459699,1300,,조합놀이대,,,,1989-08-07,경기도 이천시청,031-645-3844,2023-03-03
41500-00014,태극공원,어린이공원,경기도 이천시 서희로96번길 23(창전동),경기도 이천시 창전동 435-8,37.2841229,127.4454011,1200,농구대,조합놀이대,,,,1989-08-07,경기도 이천시청,031-645-3844,2023-03-03
41500-00016,동새말공원,어린이공원,경기도 이천시 애련정로 135번길 23-13,경기도 이천시 창전동 455,37.2822743,127.4491159,1300,배드민턴장+농구대,조합놀이대,,,,1989-08-07,경기도 이천시청,031-645-3844,2023-03-03
41500-00017,샛별공원,어린이공원,경기도 이천시 애련정로 103번길 19,경기도 이천시 창전동 466,37.2795137,127.4490814,1650,배드민턴장,조합놀이대,,,,1989-08-07,경기도 이천시청,031-645-3844,2023-03-03
41500-00019,장미공원,어린이공원,경기도 이천시 이섭대천로 1177번길 36,경기도 이천시 중리동 458-6,37.2758452,127.4451223,1650,배드민턴장,조합놀이대,,,,1989-08-07,경기도 이천시청,031-645-3844,2023-03-03
41500-00020,한마음공원,어린이공원,경기도 이천시 경충대로 2652번길 13,경기도 이천시 중리동 445-6,37.2767548,127.4380016,1650,농구대,조합놀이대,,,,1989-08-07,경기도 이천시청,031-645-3844,2023-03-03
41500-00021,마전터공원,어린이공원,경기도 이천시 영창로 99,경기도 이천시 관고동 501-9,37.2841272,127.4345441,1000,농구대,조합놀이대,,,,1989-08-07,경기도 이천시청,031-645-3844,2023-03-03
41500-00027,증포제3공원,어린이공원,경기도 이천시 이섭대천로 1325-1(증포동),경기도 이천시 증포동 483,37.28941811,127.4497003,2250,배드민턴장,조합놀이대,,,,2009-09-14,경기도 이천시청,031-645-3844,2023-03-03
41500-00031,증포3지구 어린이공원1,어린이공원,경기도 이천시 이섭대천로 1325,경기도 이천시 증포동 375-5,37.28772682,127.4502128,352,,조합놀이대+그네+흔들놀이기구+충격흡수용표면재 고무포설,화장실,,,2013-05-20,경기도 이천시청,031-645-3844,2023-03-03
41500-00032,증포3지구 어린이공원2,어린이공원,경기도 이천시 이섭대천로 1325,경기도 이천시 증포동 375-5,37.28772682,127.4502128,45,,흔들놀이기구+충격흡수용표면재 고무포설,,,,2013-05-20,경기도 이천시청,031-645-3844,2023-03-03
41500-00034,마장근린공원,근린공원,경기도 이천시 마장면 마장로 11,경기도 이천시 마장면 오천리 411,37.25393028,127.3541386,15317,운동기구,조합놀이대,주차장+화장실,도서관,,2012-09-21,경기도 이천시청,031-645-3844,2023-03-03
41360-00078,별내택지어린이공원3,어린이공원,경기도 남양주시 별내동 별내3로 285,,37.66271585,127.1164707,2743,,,,,,,경기도 남양주시청,031-590-8601,2022-12-07
41360-00085,별내택지 근린공원3,근린공원,경기도 남양주시 순화궁로 313,경기도 남양주시 별내동 939,37.65493394,127.1270364,31560,,,,,,,경기도 남양주시청,031-590-8601,2022-12-07
41360-00094,마석신도2차1호소공원,소공원,경기도 남양주시 화도읍 비룡로99번길 50,경기도 남양주시 화도읍 묵현리 625-2,37.6629166,127.2986365,295,,,,,,,경기도 남양주시청,031-590-8601,2022-12-07
41463-00021,제61호 어린이공원(상갈),어린이공원,경기도 용인시 기흥구 신갈로 12,경기도 용인시 기흥구 상갈동 102-5,37.26763322,127.1058181,1650,,,,,,1996-12-31,,,2023-01-16
41463-00028,제48호 근린공원(강남근린공원),어린이공원,경기도 용인시 기흥구 갈곡로12번길 1,경기도 용인시 기흥구 구갈동 598,37.27274411,127.1295592,189796,,,,,,2000-12-30,,,2023-01-16
41463-00001,제41호 근린공원(만골공원),근린공원,경기도 용인시 기흥구 기흥로116번길 10,경기도 용인시 기흥구 신갈동 산14,37.28617851,127.1135998,81927,,,,,,1975-05-06,,,2023-01-16
41463-00010,제58호 어린이공원(개나리),어린이공원,경기도 용인시 기흥구 중부대로55번길 59,경기도 용인시 기흥구 영덕동 915,37.269301,127.0755211,5937,,,,,,1989-12-29,,,2023-01-16
41463-00012,제36호 어린이공원(내기),어린이공원,경기도 용인시 기흥구 중부대로 495,경기도 용인시 기흥구 구갈동 271,37.28133463,127.1203325,1901,,,,,,1996-11-27,,,2023-01-16
41500-00001,설봉공원,근린공원,경기도 이천시 경충대로 2709번길 128,경기도 이천시 관고동 356,37.2794565,127.4275533,1644940,축구장+배드민턴장+농구장,조합놀이대,주차장+매점+화장실,대공연장,암벽등반장,1976-12-07,경기도 이천시청,031-645-3844,2023-03-03
41500-00002,온천공원,근린공원,경기도 이천시 애련정로136번길 84,경기도 이천시 창전동 503,37.28219691,127.4523174,114600,축구장+배드민턴장+농구장,조합놀이대,주차장+화장실,대공연장,,1976-12-07,경기도 이천시청,031-645-3844,2023-03-03
41500-00003,수변공원,수변공원,경기도 이천시 경충대로 2422번길 17,경기도 이천시 진리동 140,37.2681203,127.4605268,12040,배드민턴장+족구장,조합놀이대,화장실,,,2009-09-14,경기도 이천시청,031-645-3844,2023-03-03
41500-00004,심포니공원,어린이공원,경기도 이천시 서희로 82번길 46,경기도 이천시 창전동 139,37.2822978,127.4457782,2947,,조합놀이대,,,,1989-08-07,경기도 이천시청,031-645-3844,2023-03-03
41500-00006,희망공원,어린이공원,경기도 이천시 설봉로 43번길 49,경기도 이천시 관고동 21,37.2820958,127.4361472,683,농구대,조합놀이대,,,,1989-08-07,경기도 이천시청,031-645-3844,2023-03-03
41500-00007,한아름공원,어린이공원,경기도 이천시 중리천로 15,경기도 이천시 관고동 11,37.2807419,127.4396981,1297,농구대,조합놀이대,화장실,,,1989-08-07,경기도 이천시청,031-645-3844,2023-03-03
41220-00171,어제 3호 어린이공원(모산영신지구),어린이공원,경기도 평택시 지제동삭1로 163 (동삭동 더샵지제역센트럴파크1BL아파트),경기도 평택시 동삭동 412-14,37.016004,127.090542,1887,,,,,,2009-09-30,경기도 평택시청,031-8024-4248,2023-02-10
41220-00156,성동 어린이공원,어린이공원,경기도 평택시 비전로 27 (비전동),경기도 평택시 비전동 610-1,36.995889,127.093712,2210,어깨근육풀기+온몸역기내리기+온몸허리돌리기+하늘걷기,그네+그네보호대+모래포장+조합놀이대+흔들놀이,음수전,,산마루측구+우수관+원형수로관+자연석쌓기+집수정,1989-08-30,경기도 평택시청,031-8024-4248,2023-02-10
41220-00140,물방울(동부84호) 어린이공원(세교지구단위),어린이공원,경기도 평택시 은실1길 17-2 (세교동),경기도 평택시 세교동 190-4,37.003291,127.077025,2076,,,,,,2008-05-13,경기도 평택시청,031-8024-4248,2023-02-10
41220-00121,낙촌 어린이공원,어린이공원,경기도 평택시 비전1로 35-9 (비전동),경기도 평택시 비전동 784,37.001483,127.092427,2012,다리뻗치기+마라톤운동기+발바닥지압걷기+온몸돌리기+온몸역기내리기+온몸역기올리기+탄성고무칩포장+하늘걷기,그네+그네보호대+모래+시소(4인용)+조합놀이대+탄성고무칩포장+흔들놀이,,,맹암거(간선)+맹암거(지선)+우수관(PVC이중관)+집수정+흉관,1989-07-20,경기도 평택시청,031-8024-4248,2023-02-10
41220-00093,화촌1 소공원,소공원,경기도 평택시 화촌2길 7 (통복동),경기도 평택시 통복동 242-2,36.992578,127.072429,1176,다리뻗치기+등허리지압기+어깨근육풀기+온몸근육풀기+온몸허리돌리기+윗몸일으키기,고무매트포장+고무칩포장+그네+그네보호대+시소+조합놀이대,,,배수관(다발관)+빗물받이+집수정가림막+흉관,2009-09-22,경기도 평택시청,031-8024-4248,2023-02-10
41220-00067,내리 문화공원,문화공원,경기도 평택시 팽성읍 내리길 64-23,경기도 평택시 팽성읍 내리 산3-3,36.975255,127.032559,98886,,,,,,2013-04-15,경기도 평택시청,031-8024-4248,2023-02-10
41220-00026,안정 근린공원,근린공원,경기도 평택시 팽성읍 안정순환로267번길 42,경기도 평택시 팽성읍 송화리 68-55,36.960697,127.053128,26350,다리뻗치기+등허리지압기+마라톤운동+옆파도타기+온몸근육풀기+온몸노젓기+온몸역기내리기+온몸역기올리기+온몸허리돌리기+테니스 네트대+테니스장+하늘걷기,그네+모래포설+조합놀이대+흔들놀이,화장실,,기념비석+맹암거(간선)+맹암거(지선)+배변용모래밭+배수로+빗물받이+애견배변봉투함+우수관+조형석+집수정+테니스 연습옹벽+트랜치,1975-07-12,경기도 평택시청,031-8024-4248,2023-02-10
41220-00028,영신 제1호 근린공원(영신지구),근린공원,경기도 평택시 영신로 108 (동삭동),경기도 평택시 동삭동 589-3,37.018323,127.083491,13139,,,,,,2010-01-29,경기도 평택시청,031-8024-4248,2023-02-10
41220-00030,용이 근린공원(용이지구 3호),근린공원,경기도 평택시 현신3길 13 (용이동),경기도 평택시 용이동 441-1,36.996314,127.136287,21590,다리뻗치기+마라톤운동기+옆파도타기+온몸근육풀기+온몸역기내리기+온몸허리돌리기+윗몸일으키기+하늘걷기,벽사다리놀이기+시소+조합놀이대+탄성고무칩포장+흔들놀이,음수전+화장실+휠체어경사로,계단식관람석,PVC이중벽관+U형측구+떼수로+배수로+상수관로+새들분수전+집수정,2003-12-04,경기도 평택시청,031-8024-4248,2023-02-10
41220-00031,원동 근린공원 (모산영신지구),근린공원,경기도 평택시 지제동삭1로 163 (동삭동 더샵지제역센트럴파크1BL아파트),경기도 평택시 동삭동 467-9,37.022131,127.087362,11669,,,,,,2009-09-30,경기도 평택시청,031-8024-4248,2023-02-10
41220-00002,남산 근린공원,근린공원,경기도 평택시 팽성읍 팽성송화로 76,경기도 평택시 팽성읍 남산리 산49-1,36.954556,127.054893,43411,,,,,,2010-12-30,경기도 평택시청,031-8024-4248,2023-02-10
41220-00003,경기도 평택시 팽성읍 송화택지로25번길 61,근린공원,경기도 평택시 팽성읍 송화택지로25번길 63,경기도 평택시 팽성읍 송화리 789,36.961612,127.060809,15253.8,게이트볼장+마라톤운동기+심판의자+옆파도타기+온몸근육풀기+온몸노젓기+온몸역기올리기+온몸허리돌리기+윗몸일으키기+족구대+족구장+철봉+평행봉+하늘걷기,그네+그네보호대+모래포장+조합놀이대+흔들놀이,음수대+화장실,,맹암거(간선)+맹암거(지선)+빗물받이+옹벽+우수관+원형수로관+조각 조형물(가족)+집수정+트랜치,1999-03-19,경기도 평택시청,031-8024-4248,2023-02-10
41220-00008,동부 근린공원(비전3지구),근린공원,경기도 평택시 동부공원로 46 (비전동),경기도 평택시 비전동 880,36.993988,127.118683,29821,게이트볼장+농구대(이동식)+다리걸치기+데크관람대+배드민턴장+배드민턴지주대+벤치프레스+어깨근육풀기+옆파도타기+온몸근육풀기+온몸노젓기+온몸허리돌리기+운동장+윗몸일으키기+지압보도+철봉+철봉+링+팔굽혀피기+평행봉+풋살경기장+하늘걷기,그네+그네보호대+모래포장+인공암벽놀이대+조합놀이대+흔들놀이,음수전+화장실,,나트륨섭취관련 조형물+손씻기 조형물+집수정+청소년 담배끊기 조형물+치아건강 조형물+칼로리 둥근 조형물+트랜치,1994-01-11,경기도 평택시청,031-8024-4248,2023-02-10
41220-00010,동삭 근린공원(동삭지구 1호),근린공원,경기도 평택시 동삭1로22번길 40 (동삭동 지제더샵센트럴파크아파트),경기도 평택시 동삭동 산38-2,37.022762,127.090661,11039,,,,,,2009-03-09,경기도 평택시청,031-8024-4248,2023-02-10
41220-00015,비전 근린공원(매봉산),근린공원,경기도 평택시 매봉산5길 29 (비전동),경기도 평택시 비전동 274-6,36.995058,127.103395,0,,,,,,1975-11-15,경기도 평택시청,031-8024-4248,2023-02-10
41220-00420,신당 근린공원(포승공단),근린공원,경기도 평택시 포승읍 평택항로 98,경기도 평택시 포승읍 만호리 589,36.970051,126.84749,143996.8,농구대+미니축구대+심판대+야구장+야구장 기록실+온몸허리돌리기+족구대+축구대+테니스 네트대+테니스장+테니스장 라카룸,,자전거보관대+화장실,,배수로+스틸그레이팅+집수정+포승5지사순절추모비,2000-09-27,경기도 평택시청,031-8024-4248,2023-02-10
41220-00422,안중 근린공원(안중지구 택지개발),근린공원,경기도 평택시 안중읍 현화중앙길 75,경기도 평택시 안중읍 현화리 823-2,36.985234,126.920612,11016.2,3단 다리올리기+3단 철봉+3단건너기+게이트볼 컨테이너+게이트볼장+구름다리+다리근육풀기+배드민턴 네트대+온몸근육풀기+온몸허리돌리기+윗몸일으키기+지압길 포장+평균대+평행봉+하늘걷기,,음수전+화장실,,4각 오수 맨홀뚜껑+오수맨홀+우수맨홀+집수정+트랜치+화장실집수정,1995-05-02,경기도 평택시청,031-8024-4248,2023-02-10
41220-00384,좌울 어린이공원(동부 78호),어린이공원,경기도 평택시 지산1로24번길 4-13 (지산동),경기도 평택시 지산동 689-3,37.077063,127.059261,390,마라톤운동기+온몸허리돌리기,모래포장+시소+조합놀이대,,,집수정+트랜치,2005-12-19,경기도 평택시청,031-8024-4248,2023-02-10
41220-00388,충혼 어린이공원,어린이공원,경기도 평택시 송일로25번길 14 (서정동),경기도 평택시 서정동 855,37.064395,127.059783,1608.8,어깨근육풀기+온몸허리돌리기+윗몸일으키기+하늘걷기,고무칩포장+그네+그네보호대+모래포장+조합놀이대+흔들놀이,,,빗물받이+유공관+집수정+트랜치+흉관,1986-09-30,경기도 평택시청,031-8024-4248,2023-02-10
41220-00356,송북 어린이공원,어린이공원,경기도 평택시 지산로 101 (독곡동 대림아파트),경기도 평택시 독곡동 489,37.081727,127.064462,2211.8,마라톤+역기올리기+옆파도타기+온몸근육풀기+온몸역기내리기+온몸허리돌리기+윗몸일으켜기+자유철봉+하늘걷기,그네+그물오르기+미스트터널+조합놀이대+터널놀이+트랙라이더,음수전,,,1991-06-18,경기도 평택시청,031-8024-4248,2023-02-10
41220-00358,수촌1 어린이공원(수촌지구),어린이공원,경기도 평택시 새말로104번길 48 (칠원동),경기도 평택시 칠원동 산39-4,37.022154,127.108465,2071,,,,,,2009-12-16,경기도 평택시청,031-8024-4248,2023-02-10
41220-00373,제1호 어린이공원(브레인시티),어린이공원,경기도 평택시 삼남로 357 (장안동),경기도 평택시 장안동 60-1,37.057468,127.092162,1515,,,,,,2010-03-15,경기도 평택시청,031-8024-4248,2023-02-10
41220-00350,동부 106호 어린이공원(신촌지구),어린이공원,경기도 평택시 새말로 90-4 (칠원동),경기도 평택시 칠원동 388-4,37.024643,127.109529,5143,,,,,,2009-12-16,경기도 평택시청,031-8024-4248,2023-02-10
41220-00304,수변공원(브레인시티),수변공원,경기도 평택시 삼남로 236 (도일동),경기도 평택시 도일동 983-7,37.048381,127.098853,61615,,,,,,2010-03-15,경기도 평택시청,031-8024-4248,2023-02-10
41220-00308,통복2 수변공원(수촌지구),수변공원,경기도 평택시 수촌길 50 (칠원동),경기도 평택시 칠원동 286,37.020802,127.113503,13256,,,,,,2009-12-16,경기도 평택시청,031-8024-4248,2023-02-10
41220-00272,서정동 소공원(서정연립재건축),소공원,경기도 평택시 서정북로 100 (서정동 주공외인연립),경기도 평택시 서정동 780,37.069739,127.061914,4434.8,,,,,,2012-04-13,경기도 평택시청,031-8024-4248,2023-02-10
41220-00274,소공원 1호 (송원 현대재건축),소공원,경기도 평택시 탄현로368번길 48 (독곡동 현대연립),경기도 평택시 독곡동 산69-3,37.084785,127.060812,990,,,,,,2010-10-21,경기도 평택시청,031-8024-4248,2023-02-10
41220-00238,제1호 근린공원(가재지구),근린공원,경기도 평택시 가재길 52 (가재동),경기도 평택시 가재동 436-1,37.044253,127.07525,25600,,,,,,2011-11-25,경기도 평택시청,031-8024-4248,2023-02-10
41220-00240,제2호 근린공원(가재지구),근린공원,경기도 평택시 막곡길 45-14 (가재동),경기도 평택시 가재동 산58-1,37.042392,127.083782,16340,,,,,,2011-11-25,경기도 평택시청,031-8024-4248,2023-02-10
41220-00241,제2호 근린공원(브레인시티 일반산업단지),근린공원,경기도 평택시 삼남로 351 (장안동),경기도 평택시 장안동 61-4,37.056557,127.092852,13757,,,,,,2010-03-15,경기도 평택시청,031-8024-4248,2023-02-10
41220-00243,진위 근린공원,근린공원,경기도 평택시 진위면 견산1길 17-10,경기도 평택시 진위면 견산리 산16,37.109273,127.074837,36636,,,,,,2006-06-13,경기도 평택시청,031-8024-4248,2023-02-10
41220-00244,진위산업단지 근린공원,근린공원,경기도 평택시 진위면 진위산단로 53-21,경기도 평택시 진위면 청호리 342-4,37.122825,127.082002,12100.1,농구대+농구장+온몸역기올리기+온몸허리돌리기+윗몸일으키기+족구네트걸이+풋살골대,,음수전+화장실,,공사 기념비+수목보호대+집수정+트랜치,2006-09-18,경기도 평택시청,031-8024-4248,2023-02-10
41220-00216,LG Digital Park일반산업단지 근린공원,근린공원,경기도 평택시 진위면 엘지로 222,경기도 평택시 진위면 청호리 367,37.128946,127.091568,19939.5,체력단련시설+체력단련장1+체력단련장2,,,,도수로+벤치플륨관+산마루측구+우배수시설+우수맨홀+우수받이+우수받이연결관+절토구간+집수정+집수정연결관,2013-09-11,경기도 평택시청,031-8024-4248,2023-02-10
41220-00217,가곡 근린공원,근린공원,경기도 평택시 진위면 가곡1길 39,경기도 평택시 진위면 가곡리 70-1,37.11258,127.08718,18268,,,,,,2006-06-13,경기도 평택시청,031-8024-4248,2023-02-10
41220-00221,모곡 근린공원,근린공원,경기도 평택시 산단로52번길 21 (모곡동),경기도 평택시 모곡동 444,37.035404,127.075836,27546.6,게이트볼장+온몸근육풀기+온몸허리돌리기+윗몸일으키기+축구대+축구장+테니스 네트대+테니스 심판대+테니스장+하늘걷기,,자전거거치대+주차장+화장실,,PE 빗물받이+공단준공기념비+우수관+조회대+트랜치+하수관천공접합,1988-04-23,경기도 평택시청,031-8024-4248,2023-02-10
41220-00232,신장 근린공원,근린공원,경기도 평택시 신장로 124 (신장동),경기도 평택시 신장동 370-2,37.085894,127.051198,89174,2단 철봉+게이트볼장+농구대(이동식)+농구장+다리뻗치기+등허리지압기+마라톤운동기+벤치프레스+어깨근육풀기+옆파도타기+온몸근육풀기+온몸노젓기+온몸역기올리기+온몸허리돌리기+윗몸일으키기+인라인스케이트장+족구장+족구지주+하늘걷기,고무칩포장+그네+모형기차+조합놀이대,음수전+자전거보관대+화장실,,빗물받이+수목보호대+옹벽+우수관+준공기념비+측구수로,1987-05-11,경기도 평택시청,031-8024-4248,2023-02-10
41135-00063,솔밭공원,어린이공원,경기도 성남시 분당구 새마을로1번길 3,경기도 성남시 분당구 서현동 78-4,37.38461132,127.1305004,2234.3,,어린이놀이터,벤치+파고라,,,1990-06-22,경기도 성남시 분당구 녹지공원과,031-729-7463,2022-11-13
41135-00065,점골공원,어린이공원,경기도 성남시 분당구 불정로 419,경기도 성남시 분당구 서현동 332,37.37694545,127.1399836,4487.5,,어린이놀이터,벤치+파고라,,,1990-06-22,경기도 성남시 분당구 녹지공원과,031-729-7463,2022-11-13
41135-00066,양지공원,어린이공원,경기도 성남시 분당구 서현로421번길 9,경기도 성남시 분당구 분당동 101,37.37517435,127.1442164,1733,야외운동기구,어린이놀이터,벤치+파고라,,,1990-06-22,경기도 성남시 분당구 녹지공원과,031-729-7463,2022-11-13
41550-00006,진사소공원,소공원,경기도 안성시 공도읍 서동대로 3980,경기도 안성시 공도읍 진사리 354,36.99472602,127.1511383,1510,,,,,,2013-01-31,경기도 안성시청,031-678-5392,2023-03-21
41550-00092,퇴미1 공원(29호공원),근린공원,경기도 안성시 공도읍 공도로 116-70,경기도 안성시 공도읍 만정리 260-28,36.99878639,127.178638,14594,,,,,,2007-10-31,경기도 안성시청,031-678-5392,2023-03-21
41550-00093,퇴미2 공원(30호공원),근린공원,경기도 안성시 공도읍 공도로 116-84,경기도 안성시 공도읍 만정리 879,36.99901899,127.178851,10471,,,,,,2007-10-31,경기도 안성시청,031-678-5392,2023-03-21
41220-00522,10호소공원(세교 지구단위),소공원,경기도 평택시 평택로 192 (세교동),경기도 평택시 세교동 196-1번지,37.001779,127.076907,0,,,,,,2016-08-12,경기도 평택시청,031-8024-4248,2023-02-10
41220-00524,1호 소공원(지제지구),소공원,경기도 평택시 경기대로 701 (지제동),경기도 평택시 지제동 567-3,37.011929,127.072227,0,,,,,,2016-08-12,경기도 평택시청,031-8024-4248,2023-02-10
41220-00492,긴둥골 어린이공원(안중지구 택지개발),어린이공원,경기도 평택시 안중읍 안중로18번길 18,경기도 평택시 안중읍 현화리 859,36.983129,126.926768,3239.7,배드민턴장+배드민턴지주대+옆파도타기+온몸근육풀기+온몸허리돌리기+하늘걷기,고무매트포장+그네+그네보호대+모래포장+시소+조합놀이대+흔들놀이,육각형 음수전+화장실,,조형 출입기둥+집수정,1995-05-02,경기도 평택시청,031-8024-4248,2023-02-10
41220-00476,대반리 소공원(대반지구),소공원,경기도 평택시 안중읍 대반4길 73-11,경기도 평택시 안중읍 대반리 468-3,36.980019,126.953661,888,,,,,,2012-06-14,경기도 평택시청,031-8024-4248,2023-02-10
41220-00442,당거3리 마을쉼터,기타,경기도 평택시 오성면 당거3길 48-2,경기도 평택시 오성면 당거리 9-2,36.989333,127.006579,1140,고무매트포장+농구대+농구코트+등허리지압기+발바닥지압걷기+온몸근육풀기+온몸허리돌리기+하늘걷기,고무매트포장+시소+조합놀이대+흔들놀이,음수전,,수목보호대+트랜치,,경기도 평택시청,031-8024-4248,2023-02-10
41220-00426,율리 근린공원,근린공원,경기도 평택시 안중읍 덕우로 1,경기도 평택시 안중읍 학현리 산65-1,36.99126,126.927811,0,,,,,,1972-08-25,경기도 평택시청,031-8024-4248,2023-02-10
41220-00432,현화 근린공원(안중지구 택지개발),근린공원,경기도 평택시 안중읍 안현로서8길 48,경기도 평택시 안중읍 현화리 829,36.980542,126.920402,20534.7,다리근육풀기+다리뻗치기+등허리지압기+마라톤운동기+어깨근육풀기+옆파도타기+온몸근육풀기+온몸역기올리기+온몸허리돌리기+윗몸일으키기+자유철봉+지압길 포장+평행봉+하늘걷기,고무칩포장+물놀이장 물놀이대+조합놀이대,화장실+휠체어경사로,,교육의 선구자 기념비+디자인집수정+디자인트랜치+맨홀+우수맨홀+원주목 사면보호대+집수정+측량기준점+트랜치,1995-05-02,경기도 평택시청,031-8024-4248,2023-02-10
41220-00439,길음1리 마을쉼터,기타,경기도 평택시 오성면 길음1길 57-4,경기도 평택시 오성면 길음리 81-1,36.989066,126.963737,1147,등허리지압기+어깨근육풀기+온몸근육풀기+온몸허리돌리기+하늘걷기,흔들놀이,,,배수로+벤치플륨관 +수목보호덮개+스틸그레이팅+원심력수로관+집수정+트랜치+흉관,,경기도 평택시청,031-8024-4248,2023-02-10
41390-00113,갈대하늘공원,근린공원,경기도 시흥시,경기도 시흥시 정왕동 2579-2,37.35863879,126.7103801,18818,,,,,,2011-10-04,경기도 시흥시청,031-310-3863,2022-11-28
41390-00114,문화공원,문화공원,경기도 시흥시,경기도 시흥시 정왕동 2134,37.33327055,126.746155,14346,,,,,,2011-10-28,경기도 시흥시청,031-310-3862,2022-11-28
41390-00115,힘찬공원,체육공원,경기도 시흥시 엠티브이북로 253,경기도 시흥시 정왕동 2659,37.318068,126.704841,38552,,,,,,2011-11-04,경기도 시흥시청,031-310-3869,2022-11-28
41390-00116,해찬공원,어린이공원,경기도 시흥시,경기도 시흥시 산현동 519,37.37289246,126.8477485,1517,,,,,,2011-12-21,경기도 시흥시청,031-310-3871,2022-11-28
41390-00117,을미공원,어린이공원,경기도 시흥시,경기도 시흥시 조남동 681,37.37153568,126.854846,1557,,,,,,2011-12-21,경기도 시흥시청,031-310-3871,2022-11-28
41390-00118,수풀안공원,어린이공원,경기도 시흥시,경기도 시흥시 조남동 722,37.37865922,126.863483,1697,,,,,,2011-12-21,경기도 시흥시청,031-310-3871,2022-11-28
41390-00119,다니공원,체육공원,경기도 시흥시 마산로 43,경기도 시흥시 조남동 689,37.37581307,126.856496,12096,,,,,,2011-12-21,경기도 시흥시청,031-310-3869,2022-11-28
41390-00120,새미공원,체육공원,경기도 시흥시,경기도 시흥시 조남동 705,37.37743285,126.8574734,15911,,,,,,2011-12-21,경기도 시흥시청,031-310-3869,2022-11-28
41390-00121,물왕소공원,소공원,경기도 시흥시,경기도 시흥시 산현동 493,37.377381,126.8430459,1421,,,,,,2014-09-22,경기도 시흥시청,031-310-3871,2022-11-28
41390-00122,남왕소공원,소공원,경기도 시흥시,경기도 시흥시 목감동 400,37.38364942,126.860952,882,,,,,,2014-09-22,경기도 시흥시청,031-310-3871,2022-11-28
41390-00123,새늘공원,문화공원,경기도 시흥시 동서로 902-20,경기도 시흥시 산현동 495,37.37795182,126.8461768,4653,,,,,,2014-09-22,경기도 시흥시청,031-310-3869,2022-11-28
41390-00124,문화2공원,문화공원,경기도 시흥시,경기도 시흥시 조남동 649,37.37763818,126.8499161,4222,,,,,,2014-09-23,경기도 시흥시청,031-310-3869,2022-11-28
41390-00125,정왕동 체육4공원,체육공원,경기도 시흥시,경기도 시흥시 정왕동 1878-1,37.36540222,126.7311343,11676,,,,,,2014-12-31,경기도 시흥시청,031-310-3862,2022-11-28
41390-00126,정왕동 체육5공원,체육공원,경기도 시흥시 함송로 8,경기도 시흥시 정왕동 1886-1,37.364027,126.728511,10117,,,,,,2014-12-31,경기도 시흥시청,031-310-3862,2022-11-28
41390-00127,하중어린이공원,어린이공원,경기도 시흥시,경기도 시흥시 하중동 872-2,37.39119172,126.8072188,2810,,조합놀이대,,,,2018-05-15,경기도 시흥시청,031-310-3871,2022-11-28
41390-00128,생금공원,어린이공원,경기도 시흥시 죽율로 45-32,경기도 시흥시 죽율동 765,37.350594,126.758275,7360,,,,,,,경기도 시흥시청,031-310-3871,2022-11-28
41390-00129,죽율공원,어린이공원,경기도 시흥시,경기도 시흥시 죽율동 755,37.34805344,126.7621865,1806,,,,,,,경기도 시흥시청,031-310-3871,2022-11-28
41390-00130,꿈누리공원,어린이공원,경기도 시흥시,경기도 시흥시 정왕동 2759,37.3191123,126.697642,2266,,,,,,,경기도 시흥시청,031-310-3863,2022-11-28
41390-00131,꿈자람공원,어린이공원,경기도 시흥시,경기도 시흥시 정왕동 2788,37.31664596,126.7031618,1907,,,,,,,경기도 시흥시청,031-310-3863,2022-11-28
41390-00132,꿈물결공원,어린이공원,경기도 시흥시,경기도 시흥시 정왕동 2810,37.31781215,126.696343,2341,,,,,,,경기도 시흥시청,031-310-3863,2022-11-28
41390-00133,오이도공원,문화공원,경기도 시흥시,경기도 시흥시 정왕동 2022-6,37.3420815,126.6902007,18355,,조합놀이대,,,,,경기도 시흥시청,031-310-2338,2022-11-28
41390-00134,조남소공원,소공원,경기도 시흥시,경기도 시흥시 조남동 175-5,37.3807067,126.8554643,446,,놀이기구,,,,,경기도 시흥시청,031-310-3871,2022-11-28
41390-00135,해담공원,어린이공원,경기도 시흥시,경기도 시흥시 정왕동 2408,37.37924736,126.7278446,2724,,조합놀이대,,,,,경기도 시흥시청,031-310-3863,2022-11-28
41390-00136,꿈마루공원,어린이공원,경기도 시흥시,경기도 시흥시 정왕동 2417,37.37845513,126.7297082,1685,,조합놀이대,,,,,경기도 시흥시청,031-310-3863,2022-11-28
41390-00137,갯마루공원,어린이공원,경기도 시흥시,경기도 시흥시 정왕동 2449,37.37709889,126.7299812,1603,,조합놀이대,,,,,경기도 시흥시청,031-310-3863,2022-11-28
41390-00138,도란1공원,소공원,경기도 시흥시,경기도 시흥시 정왕동 2517-2,37.36919352,126.7285868,1863,,,,,,,경기도 시흥시청,031-310-3863,2022-11-28
41390-00139,라온공원,소공원,경기도 시흥시,경기도 시흥시 정왕동 2589-1,37.35367684,126.7054514,9174,,,,,,,경기도 시흥시청,031-310-3863,2022-11-28
41135-00101,수평공원,어린이공원,경기도 성남시 분당구 금곡로23번길 15-5,경기도 성남시 분당구 구미동 138,37.34491765,127.1110148,2020.2,야외운동기구,어린이놀이터,벤치+음수전,,,1991-01-08,경기도 성남시 분당구 녹지공원과,031-729-7463,2022-11-13
41390-00086,능골공원,근린공원,경기도 시흥시,경기도 시흥시 능곡동 781,37.36553942,126.8082886,20260,체육시설+인라인스케이장+ 농구장,,,,,2004-11-10,경기도 시흥시청,031-310-3869,2022-11-28
41390-00087,목실공원,어린이공원,경기도 시흥시,경기도 시흥시 능곡동 495,37.3737267,126.813248,3387,,조합놀이대,,,,2004-11-10,경기도 시흥시청,031-310-3871,2022-11-28
41390-00088,실개울공원,어린이공원,경기도 시흥시,경기도 시흥시 능곡동 777,37.36560354,126.8104717,5351,,조합놀이대,,,,2004-11-10,경기도 시흥시청,031-310-3871,2022-11-28
41390-00089,가래울공원,어린이공원,경기도 시흥시,경기도 시흥시 능곡동 793,37.36511658,126.8138104,9351,,조합놀이대,,,,2004-11-10,경기도 시흥시청,031-310-3871,2022-11-28
41390-00090,산들공원,근린공원,경기도 시흥시,경기도 시흥시 거모동 1352,37.34710847,126.7807902,27413,체육시설물,,화장실+관리사무소,,,2005-05-03,경기도 시흥시청,031-310-3869,2022-11-28
41390-00091,솔숲공원,근린공원,경기도 시흥시,경기도 시흥시 미산동 산12-6,37.41892174,126.7916299,22070,,조합놀이대+그네 등,,,,2005-05-03,경기도 시흥시청,031-310-3870,2022-11-28
41390-00092,해가든공원,어린이공원,경기도 시흥시,경기도 시흥시 미산동 350-16,37.420317,126.7954977,1500,,조합놀이대+시소 등,,,,2005-10-10,경기도 시흥시청,031-310-3871,2022-11-28
41390-00093,산현공원,근린공원,경기도 시흥시 목감남서로 15,경기도 시흥시 조남동 670,37.375453,126.851181,89676,,,화장실+주차장+관리사무소,,,2007-11-08,경기도 시흥시청,031-310-3869,2022-11-28
41390-00094,목감공원,근린공원,경기도 시흥시 솔고개길 33,경기도 시흥시 목감동 398,37.385593,126.861279,15152,,,화장실+주차장,,,2007-11-08,경기도 시흥시청,031-310-3869,2022-11-28
41390-00095,꿈자람공원,어린이공원,경기도 시흥시,경기도 시흥시 목감동 421,37.38380568,126.8636846,1522,,,,,,2007-11-08,경기도 시흥시청,031-310-3871,2022-11-28
41390-00096,시화 1소공원,소공원,경기도 시흥시,경기도 시흥시 정왕동 876-131,37.34811134,126.748363,2370,체육시설,,,,,2009-07-03,경기도 시흥시청,031-310-3864,2022-11-28
41390-00097,나래농업공원,도시농업공원,경기도 시흥시,경기도 시흥시 정왕동 2798,37.31547989,126.7042199,10002,,,,,,2009-10-22,경기도 시흥시청,031-310-3863,2022-11-28
41390-00098,신천근린공원,근린공원,경기도 시흥시 포도원로109번길 9,경기도 시흥시 신천동 57,37.43575318,126.785457,24860,체육시설,조합놀이대,,,,2010-03-18,경기도 시흥시청,031-310-3870,2022-11-28
41390-00099,은계중앙공원(3호근린),근린공원,경기도 시흥시,경기도 시흥시 은행동 56-1,37.44140275,126.800828,37295,,,,,,2010-04-27,경기도 시흥시청,031-310-3870,2022-11-28
41390-00100,시화 2소공원,소공원,경기도 시흥시,경기도 시흥시 정왕동 1872-1,37.357584,126.7339528,2322,농구장,,,,,2010-06-17,경기도 시흥시청,031-310-3864,2022-11-28
41390-00101,파코스,소공원,경기도 시흥시,경기도 시흥시 거모동 1508-8,37.3456361,126.785128,1620,,,,,,2010-06-17,경기도 시흥시청,031-310-3871,2022-11-28
41390-00102,연성1지구 소공원,소공원,경기도 시흥시,경기도 시흥시 하상동 산11-3,37.39048724,126.8106263,5310,배드민턴장+체육시설,,,,,2010-06-17,경기도 시흥시청,031-310-3871,2022-11-28
41390-00103,태평공원,근린공원,경기도 시흥시,경기도 시흥시 하상동 343-36,37.38891057,126.8122948,10404,인라인트랙,,,,,2010-07-30,경기도 시흥시청,031-310-3869,2022-11-28
41390-00104,배곧생명,근린공원,경기도 시흥시 배곧2로 25,경기도 시흥시 정왕동 2506,37.37140953,126.721481,232456,,조합놀이대+시소 등,주차장+화장실+관리사무소+카페,야외무대,,2011-10-04,경기도 시흥시청,031-310-3863,2022-11-28
41390-00105,두드림,근린공원,경기도 시흥시 배곧4로 32-5,경기도 시흥시 정왕동 2478,37.376626,126.728195,46561,,,,,,2011-10-04,경기도 시흥시청,031-310-3863,2022-11-28
41390-00106,차오름,근린공원,경기도 시흥시,경기도 시흥시 정왕동 2488,37.37377977,126.7313455,25576,,,,,,2011-10-04,경기도 시흥시청,031-310-3863,2022-11-28
41390-00107,도담공원,어린이공원,경기도 시흥시,경기도 시흥시 산현동 496,37.37352073,126.8421847,1556,,,,,,2011-10-04,경기도 시흥시청,031-310-3871,2022-11-28
41390-00108,한울공원,수변공원,경기도 시흥시 해송십리로 61,경기도 시흥시 정왕동 2590,37.354654,126.702034,330112,,조합놀이대,,,,2011-10-04,경기도 시흥시청,031-310-3863,2022-11-28
41390-00109,숲속향기공원,근린공원,경기도 시흥시,경기도 시흥시 정왕동 2385,37.3826809,126.733108,9999,,,,,,2011-10-04,경기도 시흥시청,031-310-3863,2022-11-28
41390-00110,물빛공원,근린공원,경기도 시흥시,경기도 시흥시 정왕동 2464,37.37501628,126.7351915,10358,,,,,,2011-10-04,경기도 시흥시청,031-310-3863,2022-11-28
41390-00111,너울길공원,근린공원,경기도 시흥시,경기도 시흥시 정왕동 1775-22,37.35991941,126.7189733,12466,,,,,,2011-10-04,경기도 시흥시청,031-310-3863,2022-11-28
41390-00112,옥구가람공원,근린공원,경기도 시흥시,경기도 시흥시 정왕동 1771-8,37.35679879,126.713218,51734,,,,,,2011-10-04,경기도 시흥시청,031-310-3863,2022-11-28
41290-00004,청사앞소공원,근린공원,경기도 과천시 원문동 1,경기도 과천시 원문동 1,37.42493813,126.9898527,6321,체력단련시설,,,,조경시설+광장+도로,1980-07-20,경기도 과천시청,02-3677-2272,2022-08-01
41290-00005,남태령2소공원,소공원,경기도 과천시 양지마을4로 33,경기도 과천시 과천동 484,37.45212629,126.9941408,370,체력단련시설,,,,조경시설+도로,2005-05-30,경기도 과천시청,02-3677-2272,2022-08-01
41290-00006,뒷골4소공원,소공원,경기도 과천시 뒷골2로 29,경기도 과천시 과천동 375-2,37.4553783,127.0015303,377,체력단련시설,,,,조경시설+도로,2005-05-30,경기도 과천시청,02-3677-2272,2022-08-01
41290-00007,삼거리소공원,소공원,경기도 과천시 과천동 549-23,경기도 과천시 과천동 549-23,37.4468679,126.993337,1276,체력단련시설,어린이놀이터,파고라,,조경시설+도로,2005-05-30,경기도 과천시청,02-3677-2272,2022-08-01
41290-00008,뒷골1어린이공원,어린이공원,경기도 과천시 과천동 386-7,경기도 과천시 과천동 386-7,37.458211,127.001033,1501,체력단련시설,어린이놀이터,파고라,,조경시설+도로,2005-05-30,경기도 과천시청,02-3677-2272,2022-08-01
41290-00009,문원어린이공원,어린이공원,경기도 과천시 문원동 155-3,경기도 과천시 문원동 155-3,37.4219709,127.0087757,1737,체력단련시설,어린이놀이터,,,조경시설+도로,2001-12-11,경기도 과천시청,02-3677-2272,2022-08-01
41290-00010,죽바위1 어린이공원,어린이공원,경기도 과천시 주암동 19-2,경기도 과천시 주암동 19-2,37.45869339,127.033938,1590,체력단련시설,어린이놀이터,,,조경시설,2005-05-30,경기도 과천시청,02-3677-2272,2022-08-01
41290-00011,사기막골1 어린이공원,어린이공원,경기도 과천시 문원동 324-15,경기도 과천시 문원동 324-15,37.41954475,126.999142,1540,,어린이놀이터,,,조경시설,2005-05-30,경기도 과천시청,02-3677-2272,2022-08-01
41290-00012,죽바위2역사공원,역사공원,경기도 과천시 추사로 78,경기도 과천시 주암동 184-2,37.45300477,127.0287473,4299,,어린이놀이터,주차장,전시장,조경시설+광장+도로,2009-12-18,경기도 과천시청,02-3677-2272,2022-08-01
41290-00013,관문체육공원,체육공원,경기도 과천시 중앙로 294,경기도 과천시 관문동 3,37.4413646,126.9963478,176471,다목적운동장+농구장+잔디볼링장+배구장+테니스장+게이트볼장+배드민턴장+체력단련장,어린이놀이터,주차장+음수장,,조경시설+관리리설+광장+도로,1996-11-18,경기도 과천시 시설관리공단,02-500-1410,2022-08-01
41290-00014,문원체육공원,체육공원,경기도 과천시 문원로 56,경기도 과천시 문원동 20,37.4279215,127.0036606,36676,다목적운동장+농구장+테니스장+게이트볼장+체력단련장+조깅코스+배드민턴장+인라인스케이트장,어린이놀이터+물놀이못+지압보도+전통정자,주차장+음수장,야외공연장,조경시설+관리리설+광장+도로,2000-06-14,경기도 과천시 시설관리공단,02-500-1410,2022-08-01
41290-00015,관문어린이문화공원,문화공원,경기도 과천시 중앙로 294,경기도 과천시 관문동 3,37.4413646,126.9963478,3665,,어린이놀이터,,교통체험시설,조경시설+광장+도로,2009-09-14,경기도 과천시 시설관리공단,02-500-1410,2022-08-01
41290-00016,7-2단지 소공원,소공원,경기도 과천시 별양동 3-1,경기도 과천시 별양동 3-1,37.4330799,126.9978258,1086,,,파고라,,조경시설,2014-06-19,경기도 과천시청,02-3677-2272,2022-08-01
41290-00017,1단지 소공원,소공원,경기도 과천시 중앙동 98,경기도 과천시 중앙동 98,37.432145,126.989539,1049,체력단련시설,,파고라,,조경시설,2011-09-23,경기도 과천시청,02-3677-2273,2022-08-01
41290-00018,남태령3소공원,소공원,경기도 과천시 과천동 579-2,경기도 과천시 과천동 579-2,37.4519988,126.9930527,670,체력단련시설,,파고라,,조경시설,2005-05-30,경기도 과천시청,02-3677-2273,2022-08-01
41290-00019,광창1어린이공원,어린이공원,경기도 과천시 과천동 144-13,경기도 과천시 과천동 144-13,37.4476561,127.0102624,1529,,어린이놀이터,파고라,,조경시설,2005-05-30,경기도 과천시청,02-3677-2273,2022-08-01
41290-00020,2단지 소공원,소공원,경기도 과천시 별양로 11,경기도 과천시 원문동 2,37.42469822,126.9902247,3802,체력단련시설,,,,조경시설,2011-08-09,경기도 과천시청,02-3677-2273,2022-08-01
41290-00002,에어드리공원,근린공원,경기도 과천시 중앙로 24,경기도 과천시 갈현동 677,37.4187451,126.9897155,24080,체력단련장+체력단련시설+턱걸이+윗몸일으키기+팔굽혀펴기+역기들기,,주차장+음수장,도서관,조경시설+관리시설+광장+도로,1997-03-31,경기도 과천시청,02-3677-2272,2022-08-01
41290-00003,중앙공원,근린공원,경기도 과천시 도서관길 36,경기도 과천시 별양동 2,37.4323292,126.9966058,47627,농구장+게이트볼장+체력단련시설,어린이놀이터+정자,음수장,도서관+야외공연장,조경시설+관리리설+광장+도로,1980-07-20,경기도 과천시청,02-3677-2272,2022-08-01
41135-00046,중탑공원,어린이공원,경기도 성남시 분당구 매화로48번길 17-4,경기도 성남시 분당구 야탑동 301,37.41207913,127.1359961,5856.9,야외운동기구,어린이놀이터,벤치,,,1990-06-22,경기도 성남시 분당구 녹지공원과,031-729-8092,2022-11-13
41135-00047,탑공원,어린이공원,경기도 성남시 분당구 야탑로111번길 12-14,경기도 성남시 분당구 야탑동 385,37.41165862,127.1317843,4424,야외운동기구,어린이놀이터,벤치,,,1990-06-22,경기도 성남시 분당구 녹지공원과,031-729-8092,2022-11-13
41135-00018,주택공원,근린공원,경기도 성남시 분당구 불정로 50,경기도 성남시 분당구 정자동 253,37.35760271,127.1125099,212563.3,테니스장 배구장,,주차장+휴게음식점,전시관,,1990-06-22,경기도 성남시 공원과,031-729-4382,2022-11-13
41135-00019,금곡공원,체육공원,경기도 성남시 분당구 금곡로 298,경기도 성남시 분당구 정자동 183-1,37.35690302,127.1092011,18148.5,인공암벽+다목적체육관+체력단련시설,,화장실+멀티비전,,,1990-06-22,경기도 성남시 공원과,031-729-4382,2022-11-13
41135-00025,구미공원,근린공원,경기도 성남시 분당구 금곡로 90,경기도 성남시 분당구 구미동 299,37.34216054,127.1219484,226188.2,운동장+배드민턴장,놀이터,주차장,야외공연장,,1990-06-22,경기도 성남시 공원과,031-729-4382,2022-11-13
41135-00026,맹산2공원,근린공원,경기도 성남시 분당구 판교로 628,경기도 성남시 분당구 야탑동422-3,37.4052248,127.1420061,549878.6,,,방문자센터+약수터+주차장,곤충생태관+야외학습원+생태자연학습장,,2007-06-18,경기도 성남시 공원과,031-729-4382,2022-11-13
41135-00029,판교제2호(운중)공원,근린공원,경기도 성남시 분당구 판교원로81번길 9,경기도 성남시 분당구 운중동 953,37.39004045,127.0751082,28137.7,,,화장실,도서관,,2004-12-30,경기도 성남시 공원과,031-729-4382,2022-11-13
41135-00031,판교제4호(판교)공원,근린공원,경기도 성남시 분당구 운중로 225번길 37(판교동),경기도 성남시 분당구 운중동 990,37.39189991,127.0908701,1204532.2,배드민턴장+게이트볼장,,,탐방객센터+수영장,인공암벽장+묵논습지 복원마당+반딧불이습지원,2004-12-30,경기도 성남시 공원과,031-729-4382,2022-11-13
41135-00034,판교제8호(화랑)공원,근린공원,경기도 성남시 분당구 대왕판교로 609,경기도 성남시 분당구 삼평동 637,37.39708421,127.1062265,118923.6,체력단련장+배드민턴장+인라인스케이트장,,화장실+음수전,생태학습원+야외음악당,,2004-12-30,경기도 성남시 공원과,031-729-4382,2022-11-13
41135-00036,판교제10호(낙생대)공원,근린공원,경기도 성남시 분당구 판교역로 75,경기도 성남시 분당구 백현동 523,37.38752486,127.1076674,428698,체력단련장,놀이터,주차장,도서관+박물관+기념비+어린이집,,2004-12-30,경기도 성남시 공원과,031-729-4382,2022-11-13
41390-00061,군서희망공원,어린이공원,경기도 시흥시,경기도 시흥시 정왕동 1607,37.3457771,126.7424281,2187,체육시설물,오르는기구+조합놀이대,,,,1994-04-22,경기도 시흥시청,031-310-3864,2022-11-28
41390-00062,함현공원,어린이공원,경기도 시흥시,경기도 시흥시 정왕동 1878-6,37.36579704,126.7357929,1621,,조합놀이대+시소,,,,1994-04-22,경기도 시흥시청,031-310-3864,2022-11-28
41390-00063,함송공원,어린이공원,경기도 시흥시,경기도 시흥시 정왕동 1877-6,37.36341337,126.7341486,1694,,조합놀이대+시소,,,,1994-04-22,경기도 시흥시청,031-310-3864,2022-11-28
41390-00064,온들녘공원,어린이공원,경기도 시흥시,경기도 시흥시 정왕동 1876-5,37.36104853,126.731569,1590,,조합놀이대,,,,1994-04-22,경기도 시흥시청,031-310-3864,2022-11-28
41390-00065,풀잎사랑공원,어린이공원,경기도 시흥시,경기도 시흥시 정왕동 1875-6,37.358559,126.7293111,1638,,조합놀이대+그네,,,,1994-04-22,경기도 시흥시청,031-310-3864,2022-11-28
41390-00066,서해공원,어린이공원,경기도 시흥시,경기도 시흥시 정왕동 1867-4,37.35476263,126.7247245,1650,,오르는 기구+흔들기구,,,,1994-04-22,경기도 시흥시청,031-310-3864,2022-11-28
41390-00067,웃터골공원,근린공원,경기도 시흥시 대은로104번길 15,경기도 시흥시 은행동 600,37.444342,126.800385,10120,체육시설,,,,,1995-05-18,경기도 시흥시청,031-310-3870,2022-11-28
41390-00068,샛말공원,근린공원,경기도 시흥시 하중로173번길 23,경기도 시흥시 하중동 848,37.395022,126.804842,11079,체육시설+농구장,조합놀이대+그네 등,,,,1996-07-08,경기도 시흥시청,031-310-3869,2022-11-28
41390-00069,관곡공원,어린이공원,경기도 시흥시 관곡지로40번길 15,경기도 시흥시 하중동 826-2,37.399501,126.800632,1626,체육시설,조합놀이대,,,,1996-07-08,경기도 시흥시청,031-310-3871,2022-11-28
41390-00070,성마루공원,어린이공원,경기도 시흥시,경기도 시흥시 하중동 880-2,37.39089464,126.8052669,3200,체육시설,조합놀이대,,,,1996-07-08,경기도 시흥시청,031-310-3871,2022-11-28
41390-00071,연꽃공원,어린이공원,경기도 시흥시,경기도 시흥시 하상동 367,37.39567434,126.8109963,2420,,,,,,1996-07-08,경기도 시흥시청,031-310-3871,2022-11-28
41390-00072,하상공원,어린이공원,경기도 시흥시 하상로 14-9,경기도 시흥시 하상동 372,37.39183522,126.813879,6460,농구장+풋살경기장+체육시설+인라인트랙,,,,,1996-07-08,경기도 시흥시청,031-310-3871,2022-11-28
41390-00073,새재공원,어린이공원,경기도 시흥시 시청로72번길 25-6,경기도 시흥시 장현동 529-1,37.38267479,126.801305,1660,,조합놀이대,,,,1996-07-08,경기도 시흥시청,031-310-3871,2022-11-28
41390-00074,매꼴공원,어린이공원,경기도 시흥시,경기도 시흥시 장곡동 798-2,37.38116792,126.780663,7524,체육시설,조합놀이대,,,,1996-07-08,경기도 시흥시청,031-310-3871,2022-11-28
41390-00075,진말공원,어린이공원,경기도 시흥시,경기도 시흥시 장곡동 825-2,37.37804654,126.7874296,7524,체육시설+농구장,조합놀이대,,,,1996-07-08,경기도 시흥시청,031-310-3871,2022-11-28
41390-00076,장곡공원,어린이공원,경기도 시흥시 진말로19번길 13,경기도 시흥시 장곡동 815,37.37901167,126.784077,3284,체육시설,조합놀이대+시소 등,,,,1996-07-08,경기도 시흥시청,031-310-3871,2022-11-28
41390-00077,새싹공원,어린이공원,경기도 시흥시,경기도 시흥시 장곡동 796,37.38092325,126.7825507,3240,체육시설+농구장,,,,,1996-07-08,경기도 시흥시청,031-310-3871,2022-11-28
41390-00078,나래솔공원,근린공원,경기도 시흥시 엠티브이26로 41,경기도 시흥시 정왕동 2606-3,37.323213,126.704112,10044,,,,,,2001-08-29,경기도 시흥시청,031-310-3863,2022-11-28
41390-00079,하늬공원,근린공원,경기도 시흥시 시화호수전원2길 58,경기도 시흥시 정왕동 2795,37.31709175,126.700533,10797,,조합놀이대,주차장+화장실+관리사무소,,,2001-08-29,경기도 시흥시청,031-310-3863,2022-11-28
41390-00080,해미공원,수변공원,경기도 시흥시,경기도 시흥시 정왕동 2598-3,37.32715586,126.6995232,32706,,,,,,2001-08-29,경기도 시흥시청,031-310-3863,2022-11-28
41390-00081,물비늘,수변공원,경기도 시흥시,경기도 시흥시 정왕동 2609-6,37.32097243,126.7095464,13750,,,,,,2001-08-29,경기도 시흥시청,031-310-3863,2022-11-28
41390-00082,제1호공원,근린공원,경기도 시흥시,경기도 시흥시 능곡동 489,37.37608302,126.812551,20060,,,,,,2004-11-10,경기도 시흥시청,031-310-3869,2022-11-28
41390-00083,영모재공원,근린공원,경기도 시흥시 능골길 26,경기도 시흥시 능곡동 617,37.36967888,126.8172387,107778,체육시설,,주차장+화장실,영모재,,2004-11-10,경기도 시흥시청,031-310-3869,2022-11-28
41390-00084,승지공원,근린공원,경기도 시흥시 능곡중앙로 85,경기도 시흥시 능곡동 552,37.371378,126.813132,10842,,조합놀이대,,도서관,,2004-11-10,경기도 시흥시청,031-310-3869,2022-11-28
41390-00085,중앙공원,근린공원,경기도 시흥시,경기도 시흥시 능곡동 766,37.368046,126.8137034,17367,다목적운동장+체육시설,,주차장+화장실+관리사무소,야외무대,,2004-11-10,경기도 시흥시청,031-310-3869,2022-11-28
41390-00035,정왕2공원,어린이공원,경기도 시흥시,경기도 시흥시 정왕동 2253-4,37.35875938,126.754915,1772,,,,,,1993-12-30,경기도 시흥시청,031-310-3864,2022-11-28
41390-00036,정왕3공원,어린이공원,경기도 시흥시,경기도 시흥시 정왕동 2299-4,37.35304645,126.740217,1899,,,,,,1993-12-30,경기도 시흥시청,031-310-3864,2022-11-28
41390-00037,정왕4공원,어린이공원,경기도 시흥시,경기도 시흥시 정왕동 2307-3,37.35370263,126.7430443,1697,체육시설물+농구대,조합놀이대+그네,,,,1993-12-30,경기도 시흥시청,031-310-3864,2022-11-28
41390-00038,정왕5공원,어린이공원,경기도 시흥시,경기도 시흥시 정왕동 2322-3,37.35198074,126.743859,1798,체율시설물,조합놀이대+그네+시소+회전기구,,,,1993-12-30,경기도 시흥시청,031-310-3864,2022-11-28
41390-00039,정왕6공원,어린이공원,경기도 시흥시,경기도 시흥시 정왕동 2312-4,37.35264631,126.7456561,1700,족구장+농구대+체육시설물,조합놀이대,,,,1993-12-30,경기도 시흥시청,031-310-3864,2022-11-28
41390-00040,중앙공원,근린공원,경기도 시흥시,경기도 시흥시 정왕동 1845-1,37.34955724,126.7354085,37836,농구장+풋살경기장+체육시설+인라인트랙,그네+미끄럼틀,주차장+화장실+관리사무소,야외무대,,1994-04-22,경기도 시흥시청,031-310-3862,2022-11-28
41390-00041,서촌공원,근린공원,경기도 시흥시,경기도 시흥시 정왕동 1848-2,37.34892119,126.7264112,10064,체육시설,,화장실+주차장,,,1994-04-22,경기도 시흥시청,031-310-3862,2022-11-28
41390-00042,희망공원,근린공원,경기도 시흥시 군자천로131번길 64,경기도 시흥시 정왕동 1358,37.33593345,126.715039,126984,축구장+테니스장+체육시설,,화장실+주차장+관리사무소,,,1994-04-22,경기도 시흥시청,031-310-3862,2022-11-28
41390-00043,젊음과패기의 공원,근린공원,경기도 시흥시,경기도 시흥시 정왕동 1800-5,37.34774613,126.7398198,10647,,,,,,1994-04-22,경기도 시흥시청,031-310-3862,2022-11-28
41390-00044,평안공원,근린공원,경기도 시흥시 정왕대로298번길 36,경기도 시흥시 정왕동 1787-4,37.339462,126.741902,10019,체육시설,,화장실,,,1994-04-22,경기도 시흥시청,031-310-3862,2022-11-28
41390-00045,소망공원,근린공원,경기도 시흥시,경기도 시흥시 정왕동 1368,37.33418417,126.7263363,76148,야구장+운동장+족구장,,화장실+주차장,,,1994-04-22,경기도 시흥시청,031-310-3862,2022-11-28
41390-00046,송운공원,근린공원,경기도 시흥시,경기도 시흥시 정왕동 1873-1,37.35833842,126.7323096,10113,,,,,,1994-04-22,경기도 시흥시청,031-310-3862,2022-11-28
41390-00047,군서공원,근린공원,경기도 시흥시 정왕천로369번길 46,경기도 시흥시 정왕동 1581,37.344111,126.745326,11106,체육시설물,조합놀이대,,,,1994-04-22,경기도 시흥시청,031-310-3862,2022-11-28
41390-00048,큰솔공원,근린공원,경기도 시흥시 큰솔로 67-8,경기도 시흥시 정왕동 1512,37.343621,126.753604,12758,,,,,,1994-04-22,경기도 시흥시청,031-310-3862,2022-11-28
41390-00049,동보공원,근린공원,경기도 시흥시,경기도 시흥시 정왕동 1942-3,37.35501153,126.7164091,10009,,,,,,1994-04-22,경기도 시흥시청,031-310-3862,2022-11-28
41390-00050,함현공원,근린공원,경기도 시흥시 함송로29번길 31,경기도 시흥시 정왕동 1878-3,37.365328,126.733162,12141,,,,,,1994-04-22,경기도 시흥시청,031-310-3862,2022-11-28
41390-00051,옥구공원,근린공원,경기도 시흥시 서해안로 277,경기도 시흥시 정왕동 2138,37.354515,126.709913,334910,체육시설+축구장,조합놀이대+그네 등,주차장+화장실+관리사무소+매점,야외무대,,1994-04-22,경기도 시흥시청,031-310-3862,2022-11-28
41390-00052,사랑공원,어린이공원,경기도 시흥시,경기도 시흥시 정왕동 1872-7,37.35539691,126.733836,1650,체육시설물,조합놀이대+그네,,,,1994-04-22,경기도 시흥시청,031-310-3864,2022-11-28
41390-00053,시흥공원,어린이공원,경기도 시흥시,경기도 시흥시 정왕동 1871-2,37.35197956,126.730352,1650,체육시설물,조합놀이대+시소,,,,1994-04-22,경기도 시흥시청,031-310-3864,2022-11-28
41390-00054,해공원,어린이공원,경기도 시흥시,경기도 시흥시 정왕동 1542-5,37.34176763,126.755992,2685,체육시설물,조합놀이대+그네,,,,1994-04-22,경기도 시흥시청,031-310-3864,2022-11-28
41390-00055,새싹공원,어린이공원,경기도 시흥시,경기도 시흥시 정왕동 1412-9,37.340119,126.751166,2278,,조합놀이대+그네,,,,1994-04-22,경기도 시흥시청,031-310-3864,2022-11-28
41390-00056,달공원,어린이공원,경기도 시흥시,경기도 시흥시 정왕동 1504-2,37.345364,126.7548827,1987,,조합놀이대,,,,1994-04-22,경기도 시흥시청,031-310-3864,2022-11-28
41390-00057,별공원,어린이공원,경기도 시흥시 군서로18번길 16-1,경기도 시흥시 정왕동 1192-1,37.345619,126.750813,1794,체육시설물,조합놀이대,,,,1994-04-22,경기도 시흥시청,031-310-3864,2022-11-28
41390-00058,꿈동산공원,어린이공원,경기도 시흥시 군서로18번길 16-1,경기도 시흥시 정왕동 1569-10,37.345619,126.750813,1929,,조합놀이대+시소,,,,1994-04-22,경기도 시흥시청,031-310-3864,2022-11-28
41390-00059,무지개공원,어린이공원,경기도 시흥시 군서로54번길 4,경기도 시흥시 정왕동 1207-1,37.34656969,126.746975,1822,,조합놀이대+그네,,,,1994-04-22,경기도 시흥시청,031-310-3864,2022-11-28
41390-00060,연못공원,어린이공원,경기도 시흥시,경기도 시흥시 정왕동 1825-2,37.34846767,126.7448524,2092,체육시설물,조합놀이대,,,,1994-04-22,경기도 시흥시청,031-310-3864,2022-11-28
41111-00059,61호소공원,소공원,경기도 수원시 장안구 정조로 1053번길 36,경기도 수원시 장안구 송죽동 346-6,37.299249,127.0034947,971.3,,휴게쉼터,,,,,경기도 수원시 장안구 녹지공원과,031-228-5995,2022-06-20
41390-00010,신일공원,어린이공원,경기도 시흥시 시흥대로 1065번길 15,경기도 시흥시 신천동 890-1,37.43102709,126.790866,1667,,조합놀이대+시소+그네,,,,1981-12-31,경기도 시흥시청,031-310-2688,2022-11-28
41390-00011,포도원공원,어린이공원,경기도 시흥시,경기도 시흥시 신천동 851-7,37.43524385,126.7862446,1654,,조합놀이대,,,,1981-12-31,경기도 시흥시청,031-310-2688,2022-11-28
41390-00012,정왕동 체육3공원,체육공원,경기도 시흥시 역전로 2,경기도 시흥시 정왕동 2160,37.33875951,126.755514,112983,축구장,그네 등,,,,1986-06-23,경기도 시흥시청,031-310-3862,2022-11-28
41390-00013,대야공원,어린이공원,경기도 시흥시 대골길 47-6,경기도 시흥시 대야동 459,37.446845,126.788558,1587,,조합놀이대+그네,,,,1988-06-09,경기도 시흥시청,031-310-2688,2022-11-28
41390-00014,연합공원,문화공원,경기도 시흥시,경기도 시흥시 대야동 470-2,37.44466211,126.7888213,1638,,조합놀이대,,,,1988-06-09,경기도 시흥시청,031-310-2688,2022-11-28
41390-00015,뱀내공원,어린이공원,경기도 시흥시,경기도 시흥시 대야동 500,37.442359,126.7876756,1601,,조합놀이대+그네,,,,1988-06-09,경기도 시흥시청,031-310-2688,2022-11-28
41390-00016,신천공원,어린이공원,경기도 시흥시,경기도 시흥시 신천동 764,37.438037,126.784955,1871,,조합놀이대+그네,,,,1988-06-09,경기도 시흥시청,031-310-2688,2022-11-28
41390-00017,삼미공원,어린이공원,경기도 시흥시 삼미시장2길 40,경기도 시흥시 신천동 736,37.440032,126.784084,1646,,조합놀이대+그네,,,,1988-06-09,경기도 시흥시청,031-310-2688,2022-11-28
41390-00018,신라공원,문화공원,경기도 시흥시,경기도 시흥시 신천동 742,37.440746,126.7817066,1754,,조합놀이대+그네,,,,1988-06-09,경기도 시흥시청,031-310-2688,2022-11-28
41390-00019,벌터공원,어린이공원,경기도 시흥시 신천1길 21,경기도 시흥시 신천동 753,37.439437,126.779951,1711,,조합놀이대.,,,,1988-06-09,경기도 시흥시청,031-310-2688,2022-11-28
41390-00020,소래공원,어린이공원,경기도 시흥시,경기도 시흥시 신천동 702,37.44426059,126.7822302,1636,,조합놀이대+철봉,,,,1988-06-09,경기도 시흥시청,031-310-2688,2022-11-28
41390-00021,현진공원,어린이공원,경기도 시흥시,경기도 시흥시 신천동 775,37.438448,126.7876226,1574,,조합놀이대+시소+그네,,,,1988-06-09,경기도 시흥시청,031-310-2688,2022-11-28
41390-00022,대골공원,어린이공원,경기도 시흥시,경기도 시흥시 대야동 444-13,37.44854955,126.7906203,1552,,조합놀이대+시소+그네,,,,1988-06-09,경기도 시흥시청,031-310-2688,2022-11-28
41390-00023,안골공원,어린이공원,경기도 시흥시,경기도 시흥시 거모동 1715-1,37.34921229,126.7858034,1579,,조합놀이대+그네 등,,,,1990-10-12,경기도 시흥시청,031-310-3871,2022-11-28
41390-00024,내곡공원,어린이공원,경기도 시흥시 군자로477번안길 10-4,경기도 시흥시 거모동 1722-5,37.348184,126.783237,1604,체육시설,조합놀이대+그네 등,,,,1990-10-12,경기도 시흥시청,031-310-3871,2022-11-28
41390-00025,한우물공원,어린이공원,경기도 시흥시,경기도 시흥시 거모동 1735-3,37.34500351,126.783233,1595,체육시설,조합놀이대,,,,1990-10-12,경기도 시흥시청,031-310-3871,2022-11-28
41390-00026,석곡공원,어린이공원,경기도 시흥시 한우물로21번길 30,경기도 시흥시 거모동 1739-1,37.343985,126.781132,1601,,조합놀이대,,,,1990-10-12,경기도 시흥시청,031-310-3871,2022-11-28
41390-00027,거모공원,어린이공원,경기도 시흥시 군자로466번길 92,경기도 시흥시 거모동 1754-1,37.343039,126.784341,1772,체육시설,조합놀이대+그네 등,,,,1990-10-12,경기도 시흥시청,031-310-3871,2022-11-28
41390-00028,태봉공원,어린이공원,경기도 시흥시 군자로534번안길 6-6,경기도 시흥시 거모동 1768-5,37.34211063,126.786824,1600,체육시설,조합놀이대+시소 등,,,,1990-10-12,경기도 시흥시청,031-310-3871,2022-11-28
41390-00029,도일공원,어린이공원,경기도 시흥시 군자로534번길 36,경기도 시흥시 거모동 1775-2,37.3401446,126.7858389,1500,,초합놀이대+그네 등,,,,1990-10-12,경기도 시흥시청,031-310-3871,2022-11-28
41390-00030,옥터공원,어린이공원,경기도 시흥시,경기도 시흥시 정왕동 1998-5,37.34644588,126.6896503,1534,,조합놀이대,,,,1992-08-11,경기도 시흥시청,031-310-3864,2022-11-28
41390-00031,오이도공원,어린이공원,경기도 시흥시 오이도1길 30,경기도 시흥시 정왕동 2040-1,37.34186447,126.690127,1852,,조합놀이대+그네,,,,1992-08-11,경기도 시흥시청,031-310-3864,2022-11-28
41390-00032,비둘기공원,근린공원,경기도 시흥시,경기도 시흥시 은행동 551,37.44211319,126.7943282,63283,테니스장+배드민턴장+체육시설,미끄럼틀+그네 등,주차장+화장실+관리사무소,,,1992-11-06,경기도 시흥시청,031-310-3870,2022-11-28
41390-00033,은행공원,어린이공원,경기도 시흥시,경기도 시흥시 은행동 538-4,37.44243637,126.7984214,1774,,,,,,1992-11-11,경기도 시흥시청,031-310-3871,2022-11-28
41390-00034,정왕1공원,어린이공원,경기도 시흥시,경기도 시흥시 정왕동 2246-1,37.3571747,126.752319,1800,,,,,,1993-12-30,경기도 시흥시청,031-310-3864,2022-11-28
41390-00001,도원공원,어린이공원,경기도 시흥시,경기도 시흥시 신천동 818-1,37.43830459,126.7775548,1606,,조합놀이대,,,,1981-12-31,경기도 시흥시청,031-310-2688,2022-11-28
41390-00002,상아공원,문화공원,경기도 시흥시,경기도 시흥시 신천동 826-1,37.43606214,126.7776186,1621,,조합놀이대,,,,1981-12-31,경기도 시흥시청,031-310-2688,2022-11-28
41390-00003,신흥공원,어린이공원,경기도 시흥시 신흥마을1길 28,경기도 시흥시 신천동 821-5,37.43700868,126.778368,1601,,조합놀이대+시소+그네,,,,1981-12-31,경기도 시흥시청,031-310-2688,2022-11-28
41390-00004,새말공원,어린이공원,경기도 시흥시 포도원로79번길 11-3,경기도 시흥시 신천동 843-19,37.436735,126.783227,1587,,조합놀이대+그네+시소,,,,1981-12-31,경기도 시흥시청,031-310-2688,2022-11-28
41390-00005,둥지공원,어린이공원,경기도 시흥시 수인로3325번길 29,경기도 시흥시 신천동 857-1,37.436498,126.7889771,1467,,조합놀이대,,,,1981-12-31,경기도 시흥시청,031-310-2688,2022-11-28
41390-00006,복음공원,어린이공원,경기도 시흥시,경기도 시흥시 신천동 944,37.43508018,126.7904053,1630,,조합놀이대+시소+그네,,,,1981-12-31,경기도 시흥시청,031-310-2688,2022-11-28
41390-00007,복음자리공원,어린이공원,경기도 시흥시,경기도 시흥시 신천동 947,37.43557374,126.7908195,1597,,조합놀이대+흔들놀이기구,,,,1981-12-31,경기도 시흥시청,031-310-2688,2022-11-28
41390-00008,산호공원,어린이공원,경기도 시흥시 시흥대로1073번길 40,경기도 시흥시 신천동 870-1,37.432542,126.789033,1610,,조합놀이대,,,,1981-12-31,경기도 시흥시청,031-310-2688,2022-11-28
41390-00009,백제공원,문화공원,경기도 시흥시 시흥대로 1105-4,경기도 시흥시 신천동 84-5,37.434045,126.791764,1616,,조합놀이대+시소+그네,,,,1981-12-31,경기도 시흥시청,031-310-2688,2022-11-28
41650-00012,소흘체육공원,체육공원,경기도 포천시 소흘읍 태봉로63번길 91,경기도 포천시 소흘읍 이동교리 산1,37.82426366,127.1255178,54000,축구장(1면)+테니스장(4면)+게이트볼장+암벽장,,화장실+주차장,,,2006-07-18,경기도 포천시청 소흘읍행정복지센터,031-538-4102,2022-10-31
41650-00015,태봉근린공원,근린공원,경기도 포천시 소흘읍 태봉로 188,경기도 포천시 소흘읍 송우리 726-4,37.83309387,127.1436888,159835,다목적운동장+농구장(2)+게이트볼장+생활체육시설(3)+배드민턴장,어린이놀이터(2)+숲속놀이터(1),휴게음식점(2)+화장실+주차장,야외공연장+소규모공연장+전통정원,,1974-01-05,경기도 포천시청 생태공원과,031-538-2358,2022-10-31
41650-00018,방축공원,어린이공원,경기도 포천시 가산면 가산로 236,경기도 포천시 가산면 방축리 43-1,37.8406116,127.1781444,1705,,,,,,2000-11-09,경기도 포천시청 생태공원과,031-538-2358,2022-10-31
41650-00031,포천체육공원,체육공원,경기도 포천시 중앙로61번길 18(신읍동),경기도 포천시 신읍동 108-15,37.89390637,127.1977855,21514,농구장(1면)+게이트볼장+인라인스케이트장+풋살장(1면)+생활체육운동기구(5종),조합놀이대+놀이시설(2),화장실,,,1988-03-02,경기도 포천시청 생태공원과,031-538-2358,2022-10-31
41650-00032,선단공원,근린공원,경기도 포천시 넘마을길 8,경기도 포천시 선단동 산39,37.85622036,127.159816,36728,,,,,,2010-02-16,경기도 포천시청 생태공원과,031-538-2358,2022-10-31
41650-00037,화봉공원,근린공원,경기도 포천시 가산면 가산로 227-40,경기도 포천시 가산면 방축리 산16-1,37.841649,127.175685,115940,,,,,,2000-11-09,경기도 포천시청 생태공원과,031-538-2358,2022-10-31
41650-00040,어린이공원,어린이공원,경기도 포천시 소흘읍 솔모루로169번길 8-9,경기도 포천시 소흘읍 송우리 37-12,37.8359279,127.1516838,1546,,,,,,2014-12-31,경기도 포천시청 생태공원과,031-538-2358,2022-10-31
41550-00066,안성맞춤가족공원(17호근린공원),근린공원,경기도 안성시 공도읍 대림동산길 36,경기도 안성시 공도읍 마정리 112-52,37.01383053,127.2027162,22224,,,,,,2001-03-26,경기도 안성시청,031-678-5392,2023-03-21
41550-00081,도례공원,근린공원,경기도 안성시 도구머리길 148-14 (도기동),경기도 안성시 도기동 산64,36.9920182,127.2570455,347059,,,,,,1990-10-18,경기도 안성시청,031-678-5392,2023-03-21
41830-00042,삼산 어린이공원,어린이공원,경기도 양평군 양동면 원삼산길 13-36,경기도 양평군 양동면 삼산리 105-19,37.42099823,127.770641,2034,,,,,,2015-07-24,경기도 양평군청,031-770-2358,2022-06-03
41480-00082,법원 체육공원,근린공원,경기도 파주시 파주읍 통일로 1586-24,경기도 파주시 파주읍 봉서리 353-1일원,37.8490235,126.7898042,23007,배드민턴장,조합놀이대,화장실,,,2005-09-07,경기도 파주시 공원관리과,031-940-5381,2022-04-29
41830-00011,청운체육공원,체육공원,경기도 양평군 청운면 청운체육공원길 52,경기도 양평군 청운면 여물리 113,37.552732,127.7031341,24650,축구장+테니스장,,,,,2008-12-31,경기도 양평군청,031-770-2358,2022-06-03
41830-00020,강하 소공원,소공원,경기도 양평군 강하면 운심길 58,경기도 양평군 강하면 운심리 28-1,37.496164,127.4123259,394,농구장+축구장+테니스장,,,,,2012-08-30,경기도 양평군청,031-770-2358,2022-06-03
41830-00023,오빈14호 소공원,소공원,경기도 양평군 양평읍 오빈1리길12번길 4,경기도 양평군 양평읍 오빈리 88-46,37.507148,127.479103,404,,,,,,2013-10-15,경기도 양평군청,031-770-2358,2022-06-03
41830-00024,오빈15호 소공원,소공원,경기도 양평군 양평읍 오빈1리길 9,경기도 양평군 양평읍 오빈리 81-32,37.50698641,127.4796766,293,,,,,,2013-10-15,경기도 양평군청,031-770-2358,2022-06-03
41210-00035,안현,어린이공원,경기도 광명시 안재로16번길 10,경기도 광명시 하안동 597,37.46010736,126.8724583,1500,,,,,,1989-10-26,경기도 광명시청,02-2680-6298,2022-10-11
41281-00026,화정 17(별빛어린이),어린이공원,경기도 고양시 덕양구 화중로 61,경기도 고양시 덕양구 화정동 954번지,37.63290261,126.8296879,5106.7,,조합놀이대,화장실,,,1990-11-04,경기도 고양시 덕양구청,031-8075-5267,2022-09-17
41650-00002,운천 제2공원,어린이공원,경기도 포천시 영북면 영북로170번길 12-12,경기도 포천시 영북면 운천리 산17-1,38.089037,127.276013,2787,,,,,,1995-12-29,경기도 포천시청 생태공원과,031-538-2358,2022-10-31
41650-00003,운천 제3공원,어린이공원,경기도 포천시 영북면 영북로133번길 46,경기도 포천시 영북면 운천리 548-4,38.08797516,127.2706517,2938,농구대(2),조합놀이대+놀이시설(3),화장실,,,1987-08-12,경기도 포천시청 생태공원과,031-538-2358,2022-10-31
41650-00005,선단 제2공원,어린이공원,경기도 포천시 삼육사로 2143(선단동),경기도 포천시 선단동 667,37.85753617,127.1568235,1724,생활체육운동기구(5종),조합놀이대,,,,2010-03-19,경기도 포천시청 생태공원과,031-538-2358,2022-10-31
41273-00046,선삼로,어린이공원,경기도 안산시 단원구 선삼로 68,경기도 안산시 단원구 선부동 1123-7,37.346708,126.811284,1597.5,농구대 1,조합놀이대+그네,,,,1996-01-01,경기도 안산시청,031-481-6412,2022-10-31
41273-00048,방죽,어린이공원,경기도 안산시 단원구 화정로안길 6,경기도 안산시 단원구 와동 843,37.332944,126.8174479,1806,농구대 1,조합놀이대+시소+그네,,,,1996-01-01,경기도 안산시청,031-481-6412,2022-10-31
41273-00054,와개,어린이공원,경기도 안산시 단원구 사세충열로4길 9,경기도 안산시 단원구 와동 102,37.342434,126.8294304,1363.2,농구대 1,조합놀이대+시소+그네+흔들놀이,,,,1997-01-01,경기도 안산시청,031-481-6412,2022-10-31
41273-00055,광덕산밑,어린이공원,경기도 안산시 단원구 사세충열로1길 24-17,경기도 안산시 단원구 와동 710-4,37.337512,126.829366,1532.7,,조합놀이대+시소+그네,,,,1997-01-01,경기도 안산시청,031-481-6412,2022-10-31
41273-00060,둔배미공원,근린공원,경기도 안산시 단원구 광덕2로 55,경기도 안산시 단원구 초지동 723-1,37.310739,126.816402,44535,풋살구장+체력단련장+체육관 (게이트볼삭제요청),놀이터+조합놀이대,주차장+화장실,,,1998-07-03,경기도 안산시청,031-481-2468,2022-10-31
41273-00061,와동제2공원,근린공원,경기도 안산시 단원구 순환로 416,경기도 안산시 단원구 와동 95-3,37.343607,126.834817,57970,운동장+축구장+배드민턴장,놀이터,주차장,,,2001-04-13,경기도 안산시청,031-481-2468,2022-10-31
41273-00022,거미울,어린이공원,경기도 안산시 단원구 거미울길 9,경기도 안산시 단원구 선부동 1010,37.341678,126.802482,1494.9,,조합놀이대+그네,,,,1990-01-01,경기도 안산시청,031-481-6412,2022-10-31
41273-00023,화랑,어린이공원,경기도 안산시 단원구 인현3길 14,경기도 안산시 단원구 고잔동 662-1,37.325994,126.820789,2039.1,농구대 1,조합놀이대+그네,,,,1991-01-01,경기도 안산시청,031-481-6412,2022-10-31
41273-00024,석수,어린이공원,경기도 안산시 단원구 북촌2길 17,경기도 안산시 단원구 선부동 1025,37.343339,126.805023,1904.6,,조합놀이대+그네,,,,1991-01-01,경기도 안산시청,031-481-6412,2022-10-31
41273-00026,황금,어린이공원,경기도 안산시 단원구 황금길 9-4,경기도 안산시 단원구 고잔동 624,37.332075,126.829755,1720.4,,조합놀이대+시소+그네,,,,1992-01-01,경기도 안산시청,031-481-6412,2022-10-31
41273-00027,해송,어린이공원,경기도 안산시 단원구 예술대학로2길 3-16,경기도 안산시 단원구 고잔동 647,37.329532,126.839302,1593.9,,조합놀이대+그네,,,,1992-01-01,경기도 안산시청,031-481-6412,2022-10-31
41273-00030,정지막골,어린이공원,경기도 안산시 단원구 석수로 5-1,경기도 안산시 단원구 선부동 1060,37.340348,126.808162,1503.1,,조합놀이대+시소+그네,,,,1992-01-01,경기도 안산시청,031-481-6412,2022-10-31
41273-00031,달미,어린이공원,경기도 안산시 단원구 화정천서로4안길 18,경기도 안산시 단원구 선부동 1093,37.344067,126.816072,1511.1,,조합놀이대+시소+그네+흔들놀이,,,,1992-01-01,경기도 안산시청,031-481-6412,2022-10-31
41273-00032,와동,어린이공원,경기도 안산시 단원구 와동로1길 20,경기도 안산시 단원구 와동 724,37.333075,126.825215,1564.5,,조합놀이대+시소+그네,,,,1992-01-01,경기도 안산시청,031-481-6412,2022-10-31
41273-00033,여울,어린이공원,경기도 안산시 단원구 화정천동로3길 17,경기도 안산시 단원구 와동 803-7,37.344225,126.820527,1706.2,농구대 1,조합놀이대+,,,,1992-01-01,경기도 안산시청,031-481-6412,2022-10-31
41273-00037,복지,어린이공원,경기도 안산시 단원구 와동로7안길 7,경기도 안산시 단원구 와동 123,37.339797,126.827943,722.7,,조합놀이대+시소+그네,,,,1994-01-01,경기도 안산시청,031-481-6412,2022-10-31
41273-00042,원곡,어린이공원,경기도 안산시 단원구 원선1로 10(원곡동),경기도 안산시 단원구 원곡동 850,37.323728,126.804429,1385.9,농구대 2,조합놀이대+시소+그네,,,,1995-01-01,경기도 안산시청,031-481-6412,2022-10-31
41273-00011,와동묘지공원,묘지공원,경기도 안산시 단원구 순환로 390,경기도 안산시 단원구 와동 37-2,37.342558,126.833769,159232,,,주차장+화장실+전망대,,,1985-09-11,경기도 안산시청,031-481-2468,2022-10-31
41273-00013,와동공원,근린공원,경기도 안산시 단원구 와동공원로 109,경기도 안산시 단원구 와동 813-1,37.340018,126.820303,56895,농구장+다목적운동장+운동기구 6종,놀이터,주차장+화장실+자전거보관소,,,1985-09-11,경기도 안산시청,031-481-2468,2022-10-31
41273-00017,못골,어린이공원,경기도 안산시 단원구 지곡로 36,경기도 안산시 단원구 선부동 993,37.338069,126.803786,1985.7,,조합놀이대+그네,,,,1989-01-01,경기도 안산시청,031-481-6412,2022-10-31
41310-00089,사노동체육공원,체육공원,경기도 구리시 왕숙천로 701,경기도 구리시 사노동 37-1,37.63557367,127.1471454,57479,,,,,,2009-03-13,경기도 구리시청,031-550-8775,2022-11-22
41310-00090,인창체육공원,체육공원,경기도 구리시 인창2로27번길 11,경기도 구리시 인창동 622-28,37.604761,127.1299544,10228,,,,,,2010-05-25,경기도 구리시청,031-550-8775,2022-11-22
41310-00018,돌섬공원,어린이공원,경기도 구리시 코스모스길215번길 68-20,경기도 구리시 토평동 23-50,37.57976438,127.155611,1587,,,,,,2008-02-04,밀알교회,,2022-11-22
41310-00023,공원(백교2),어린이공원,경기도 구리시 한다리길 28,경기도 구리시 교문동 667-4,37.58161904,127.1276101,1210,야외헬스기구,조합놀이대,,,,2006-01-13,경기도 구리시청,031-550-2418,2022-11-22
41310-00033,공원(아치울2),어린이공원,경기도 구리시 아치울길 33,경기도 구리시 아천동 353-10,37.57465468,127.1186927,1523,야외헬스기구,조합놀이대,,,,2006-01-13,경기도 구리시청,031-550-2418,2022-11-22
41310-00039,왕산내뜰어린이공원,어린이공원,경기도 구리시 수택동 889-3,경기도 구리시 수택동 560,37.6027172,127.1473125,1903,야외헬스기구,조합놀이대,,,,2007-07-30,경기도 구리시청,031-550-2418,2022-11-22
41310-00040,포스코공원,어린이공원,경기도 구리시 인창2로 14,경기도 구리시 인창동 713-2,37.60318749,127.1311763,2358,야외헬스기구,조합놀이대,,,,2012-07-25,경기도 구리시청,031-550-2474,2022-11-22
41310-00041,덕고개공원,어린이공원,경기도 구리시 체육관로153번길 58,경기도 구리시 교문동 220,37.5989141,127.1331825,1651,야외헬스기구,조합놀이대,,,,1980-08-13,경기도 구리시청,031-550-2418,2022-11-22
41310-00043,가능골공원,어린이공원,경기도 구리시 안골로7번길 21,경기도 구리시 교문동 750,37.5957053,127.1332803,1557,야외헬스기구,조합놀이대,,,,1988-02-20,경기도 구리시청,031-550-2418,2022-11-22
41310-00044,호수공원,어린이공원,경기도 구리시 장자대로1번길 82-12,경기도 구리시 교문동 799,37.59132594,127.1322485,1483,야외헬스기구,조합놀이대,,,,1990-03-21,경기도 구리시청,031-550-2418,2022-11-22
41310-00045,금호어울림공원,어린이공원,경기도 구리시 아차산로487번길 39,경기도 구리시 교문동 358-11,37.597511,127.1280142,3907,야외헬스기구,조합놀이대,,,,2006-04-10,경기도 구리시청,031-550-2418,2022-11-22
41310-00049,샛다리공원,어린이공원,경기도 구리시 아차산로405번길 49,경기도 구리시 교문동 418-2,37.59096492,127.1277344,4995,,조합놀이대,,,,2003-10-06,경기도 구리시청,031-550-2418,2022-11-22
41310-00054,옥밭굴공원,어린이공원,경기도 구리시 원수택로 41,경기도 구리시 수택동 436,37.59594218,127.140804,1653,야외헬스기구,조합놀이대,,,,1980-08-13,경기도 구리시청,031-550-2418,2022-11-22
41310-00056,서가산공원,어린이공원,경기도 구리시 원수택로64번길 78,경기도 구리시 수택동 477,37.5949186,127.1453749,1657,,조합놀이대,,,,1980-08-13,경기도 구리시청,031-550-2418,2022-11-22
41310-00057,옥천공원,어린이공원,경기도 구리시 원수택로 25,경기도 구리시 수택동 437-20,37.5946454,127.1395168,1653,,,,,,1980-08-13,경기도 구리시청,031-550-2418,2022-11-22
41310-00058,새말공원,어린이공원,경기도 구리시 이문안로83번길 16-6,경기도 구리시 수택동 449,37.592621,127.1410816,1656,야외헬스기구,조합놀이대,,,,1980-08-13,경기도 구리시청,031-550-2418,2022-11-22
41310-00059,새마을공원,어린이공원,경기도 구리시 이문안로147번길 21,경기도 구리시 수택동 684-14,37.592111,127.148072,1500,야외헬스기구,조합놀이대,,,,1988-09-16,경기도 구리시청,031-550-2418,2022-11-22
41310-00060,부양공원,어린이공원,경기도 구리시 체육관로74번길 62,경기도 구리시 수택동 854-1,37.59079099,127.1415173,13430,야외헬스기구,조합놀이대,화장실,,,1990-03-21,경기도 구리시청,031-550-2418,2022-11-22
41310-00062,아름마을어린이공원,어린이공원,경기도 구리시 동구릉로53번길 147,경기도 구리시 인창동 651-36,37.610171,127.130311,5407,야외헬스기구,조합놀이대(물놀이장),화장실,,,2009-03-04,경기도 구리시청,031-550-2474,2022-11-22
41310-00063,안말공원,어린이공원,경기도 구리시 갈매중앙로55번길 56-15,경기도 구리시 갈매동 613,37.63081645,127.1154485,1500,야외헬스기구,조합놀이대,,,,2010-04-27,경기도 구리시청,031-550-2474,2022-11-22
41310-00068,주공6단지공원,어린이공원,경기도 구리시 건원대로34번길 77,경기도 구리시 인창동 668-3,37.60553815,127.1439628,1956,야외헬스기구,조합놀이대,,,,1993-11-02,경기도 구리시청,031-550-2474,2022-11-22
41310-00069,아름공원,어린이공원,경기도 구리시 동구릉로85번길 76,경기도 구리시 인창동 491,37.61090762,127.1323979,1637,야외헬스기구,조합놀이대,,,,1995-12-12,경기도 구리시청,031-550-2474,2022-11-22
41310-00073,건영공원,어린이공원,경기도 구리시 동구릉로 151,경기도 구리시 인창동 474-1,37.61277405,127.1370201,1500,야외헬스기구,조합놀이대,,,,1988-09-16,경기도 구리시청,031-550-2474,2022-11-22
41310-00100,도당공원,역사공원,경기도 구리시 갈매순환로 72,경기도 구리시 갈매동 660,37.62619056,127.1185549,26625,야외헬스기구,,화장실+주차장,,,2010-04-27,경기도 구리시청,031-550-2474,2022-11-22
41310-00088,교문동 체육공원,체육공원,경기도 구리시 체육관로 131,경기도 구리시 교문동 3-2번지,37.59556232,127.1362762,26998,,,,,,2009-07-20,경기도 구리시청,031-550-8775,2022-11-22
41310-00007,동구하늘공원,근린공원,경기도 구리시 건원대로76번길 127,경기도 구리시 인창동 669-1,37.6076938,127.1454042,949.8,야외헬스기구+족구장,조합놀이대(물놀이장),화장실,,,1993-11-02,경기도 구리시청,031-550-2474,2022-11-22
41310-00008,늘푸른공원,근린공원,경기도 구리시 건원대로34번길 76,경기도 구리시 인창동 674-2,37.604531,127.1448022,10000,야외헬스기구+족구장+인라인스케이트장,조합놀이대,화장실,,,1993-11-02,경기도 구리시청,031-550-2474,2022-11-22
41310-00092,소공원(돌섬),소공원,경기도 구리시 코스모스길215번길 68-23,경기도 구리시 토평동 23-45,37.579951,127.155061,302,,,벤치,,,2008-02-04,경기도 구리시청,031-550-2418,2022-11-22
41310-00091,소공원(교문3),소공원,경기도 구리시 아차산로 477,경기도 구리시 교문동 358-9,37.59708883,127.130411,1335,,,벤치,,,2008-04-14,경기도 구리시청,031-550-2418,2022-11-22
41310-00093,소공원(인창3),소공원,경기도 구리시 인창2로 7,경기도 구리시 인창동 714-2,37.602669,127.1296221,1069,,,벤치,,,2012-07-25,경기도 구리시청,031-550-2474,2022-11-22
41310-00061,수누피공원,어린이공원,경기도 구리시 원수택로32번길 95-15,경기도 구리시 수택동 626-4,37.59401968,127.1449146,2857,야외헬스기구,조합놀이대,,,,1998-06-03,경기도 구리시청,031-550-2418,2022-11-22
41310-00070,원일공원,어린이공원,경기도 구리시 동구릉로148번길 24-2,경기도 구리시 인창동 693,37.61186183,127.1386002,1821,야외헬스기구,조합놀이대,무대,,,1996-12-12,경기도 구리시청,031-550-2474,2022-11-22
41310-00074,삼호공원,어린이공원,경기도 구리시 응달말로40번길 47,경기도 구리시 인창동 595,37.60281663,127.1365201,1500,야외헬스기구,조합놀이대,,,,1988-09-16,경기도 구리시청,031-550-2474,2022-11-22
41310-00085,새싹공원,어린이공원,경기도 구리시 장자대로 153-13,경기도 구리시 토평동 957,37.58719208,127.147062,2392,야외헬스기구,조합놀이대,,,,1996-12-31,경기도 구리시청,031-550-2418,2022-11-22
41310-00075,주공1단지,어린이공원,경기도 구리시 건원대로 92,경기도 구리시 인창동 663-3,37.61053409,127.1397086,2905,야외헬스기구,조합놀이대,,,,1993-11-02,경기도 구리시청,031-550-2474,2022-11-22
41310-00076,삼보1공원,어린이공원,경기도 구리시 건원대로76번길 36,경기도 구리시 인창동 665-2,37.607911,127.1410333,1592,야외헬스기구,조합놀이대,,,,1993-11-02,경기도 구리시청,031-550-2474,2022-11-22
41310-00077,주공2단지1공원,어린이공원,경기도 구리시 건원대로76번길 52,경기도 구리시 인창동 664-2,37.61069531,127.1407541,1741,야외헬스기구,조합놀이대,,,,1993-11-02,경기도 구리시청,031-550-2474,2022-11-22
41310-00078,주공2단지2공원,어린이공원,경기도 구리시 건원대로76번길 85,경기도 구리시 인창동 664-4,37.609241,127.1437257,1845,철봉,조합놀이대,,,,1993-11-02,경기도 구리시청,031-550-2474,2022-11-22
41310-00079,삼보2공원,어린이공원,경기도 구리시 건원대로 56,경기도 구리시 인창동 665-3,37.60780795,127.1404967,1730,야외헬스기구,조합놀이대,,,,1993-11-02,경기도 구리시청,031-550-2474,2022-11-22
41310-00080,주공4단지1공원,어린이공원,경기도 구리시 건원대로76번길 68,경기도 구리시 인창동 666-4,37.60694053,127.143298,1585,야외헬스기구+족구장,조합놀이대,,,,1993-11-02,경기도 구리시청,031-550-2474,2022-11-22
41310-00081,주공4단지2공원,어린이공원,경기도 구리시 건원대로76번길 132,경기도 구리시 인창동 666-5,37.60694053,127.143298,1506,야외헬스기구,조합놀이대,,,,1993-11-02,경기도 구리시청,031-550-2474,2022-11-22
41310-00082,민벌공원,어린이공원,경기도 구리시 검배로 164,경기도 구리시 토평동 1010,37.5932476,127.1563305,1553,,조합놀이대,,,,1996-12-31,경기도 구리시청,031-550-2418,2022-11-22
41310-00083,개맥이공원,어린이공원,경기도 구리시 검배로120번길 21-28,경기도 구리시 토평동 1004,37.59261996,127.1515648,3128,야외헬스기구,조합놀이대,,,,1996-12-31,경기도 구리시청,031-550-2418,2022-11-22
41310-00084,오성공원,어린이공원,경기도 구리시 벌말로147번길 15-18,경기도 구리시 토평동 983,37.58914181,127.1471419,2111,야외헬스기구,조합놀이대,,,,1996-12-31,경기도 구리시청,031-550-2418,2022-11-22
41310-00086,금호공원,어린이공원,경기도 구리시 장자호수길 39,경기도 구리시 교문동 822,37.58575181,127.1341714,2321,야외헬스기구,조합놀이대,,,,1996-12-31,경기도 구리시청,031-550-2418,2022-11-22
41310-00067,삼환공원,어린이공원,경기도 구리시 건원대로34번길 67,경기도 구리시 인창동 667-2,37.60505626,127.1439918,1530,야외헬스기구,조합놀이대,,,,1993-11-02,경기도 구리시청,031-550-2474,2022-11-22
41310-00016,탑골공원,어린이공원,경기도 구리시 갈매중앙로 165-14,경기도 구리시 갈매동 536,37.6379297,127.1232326,1507,야외헬스기구,조합놀이대,,,,2011-09-28,경기도 구리시청,031-550-2474,2022-11-22
41360-00159,체육공원 2호,체육공원,경기도 남양주시 다산중앙로146번길 83,경기도 남양주시 다산동 6033,37.627789,127.160123,13044,,,,,,,경기도 남양주시청,031-590-8601,2022-12-07
41360-00160,장승다담공원,역사공원,경기도 남양주시 진접읍 금강로 1554-11,경기도 남양주시 진접읍 장현리 45-47,37.72960183,127.194169,13422,,,,,,,경기도 남양주시청,031-590-8601,2022-12-07
41360-00161,녹촌제1호소공원,소공원,경기도 남양주시 화도읍 경춘보학1길 7,,37.65062377,127.2973286,1228,,,,,,,경기도 남양주시청,031-590-8601,2022-12-07
41360-00163,능내공원,문화공원,경기도 남양주시 조안면 다산로 566-5,경기도 남양주시 조안면 능내리 131-1,37.52355832,127.2961297,9344,,,,,,,경기도 남양주시청,031-590-8601,2022-12-07
41360-00170,홍유릉역사공원,역사공원,경기도 남양주시 홍유릉로 352-1,경기도 남양주시 금곡동 434-3 일원,37.6319105,127.2110939,1233657,,,,,,,경기도 남양주시청,031-590-8601,2022-12-07
41360-00015,소공원/1,소공원,경기도 남양주시 별내면 청학로중앙길 60,경기도 남양주시 별내면 청학리 177-3,37.70974559,127.1130858,3240,,,,,,,경기도 남양주시청,031-590-8601,2022-12-07
41310-00011,인창중앙공원,근린공원,경기도 구리시 동구릉로66번길 29,경기도 구리시 인창동 309-2 일원,37.60590072,127.1361322,78093,배드민턴장+야외헬스기구,조합놀이대,광장+무대+화장실,,벽천폭포+쿨링포그,1971-11-15,경기도 구리시청,031-550-2474,2022-11-22
41310-00013,장자호수공원,근린공원,경기도 구리시 장자호수길 105,경기도 구리시 수택동 878,37.58524535,127.141773,45180,야외헬스기구,,무대,,,1995-03-28,경기도 구리시청,031-550-2472,2022-11-22
41310-00015,토평공원,근린공원,경기도 구리시 벌말로 130-29,경기도 구리시 토평동 990-1,37.58941296,127.1500238,15747.9,족구장+야외헬스기구,조합놀이대(물놀이장),화장실,,,1996-12-31,경기도 구리시청,031-550-2418,2022-11-22
41310-00004,갈매중앙공원,근린공원,경기도 구리시 산마루로 41,"경기도 구리시 갈매동 578, 580",37.63111074,127.118567,20722.5,,조합놀이대(물놀이장),무대+화장실+주차장,,바닥분수+쿨링포그,2010-04-27,경기도 구리시청,031-550-2474,2022-11-22
41360-00128,수변공원 2호,수변공원,경기도 남양주시 다산순환로 149,"경기도 남양주시 다산동 6022, 6074",37.6232428,127.1442049,84994,,,,,,,경기도 남양주시청,031-590-8601,2022-12-07
41360-00145,금곡산업단지소공원2,소공원,경기도 남양주시 진접읍 경복대로바람골길 42-142,경기도 남양주시 진접읍 금곡리 2070,37.7092353,127.2133635,1351,,,,,,,경기도 남양주시청,031-590-8601,2022-12-07
41360-00103,오남근린공원,근린공원,경기도 남양주시 오남읍 양지로240번길 12,경기도 남양주시 오남읍 양지리 512-29,37.6979608,127.1978694,13823,,,,,,,경기도 남양주시청,031-590-8601,2022-12-07
41360-00110,진접4호해참공원,근린공원,경기도 남양주시 진접읍 해밀예당1로236번길 23,경기도 남양주시 진접읍 금곡리 1118,37.7189556,127.2050662,108852,,,,,,,경기도 남양주시청,031-590-8601,2022-12-07
41360-00117,도제원지구 수변공원,수변공원,경기도 남양주시 퇴계원읍 경춘북로558번길 12,경기도 남양주시 퇴계원읍 퇴계원리 370-5,37.64445412,127.1470021,12618,,,,,,,경기도 남양주시청,031-590-8601,2022-12-07
41610-00035,노곡어린이공원,어린이공원,경기도 광주시 도척면 도척로 559,경기도 광주시 노곡리 241-1,37.30407113,127.33064,2394,운동기구,조합놀이대,,,,,광주도시관리공사,031-762-1039,2022-10-05
41410-00117,백일홍어린이공원,어린이공원,경기도 군포시 송부로273번길 7,경기도 군포시 부곡동 1112,37.32314464,126.9411386,2721.2,,,,,,2003-06-20,경기도 군포시청,031-390-0478,2022-07-22
41410-00118,눈꽃어린이공원,어린이공원,경기도 군포시 번영로28번길 45-48,경기도 군포시 부곡동 1130-2,37.32572104,126.9462225,1500.2,,,,,,2003-06-20,경기도 군포시청,031-390-0478,2022-07-22
41410-00128,참그루소공원(당정2지구),소공원,경기도 군포시 공단로140번길 27,경기도 군포시 당정동 181-5,37.35816507,126.9523333,4548,,,,,,2011-12-15,경기도 군포시청,031-390-0478,2022-07-22
41410-00017,재궁공원,근린공원,경기도 군포시 오금로 123,경기도 군포시 금정동 850-2,37.35844953,126.9395325,10288.6,,,,,,1994-09-15,경기도 군포시청,031-390-0474,2022-07-22
41410-00018,중앙공원,근린공원,경기도 군포시 광정로 96,경기도 군포시 산본동 1122,37.36158178,126.9287049,40020.7,,,,,,1994-09-15,경기도 군포시청,031-390-0474,2022-07-22
41410-00006,능안공원,근린공원,경기도 군포시 고산로677번길 21,경기도 군포시 산본동 1065,37.37215635,126.932147,63271.5,,,,,,1994-09-15,경기도 군포시청,031-390-0474,2022-07-22
41410-00009,한우물공원(당정2지구),근린공원,경기도 군포시 공단로140번길 27,경기도 군포시 당정동 181-44,37.35816507,126.9523333,10000.4,,,,,,2011-12-15,경기도 군포시청,031-390-0474,2022-07-22
41410-00015,철쭉공원,근린공원,경기도 군포시 번영로 407,경기도 군포시 산본동 1153,37.353185,126.9257606,68974,,,,,,1994-09-15,경기도 군포시청,031-390-0474,2022-07-22
41410-00025,광정어린이공원,어린이공원,경기도 군포시 산본로431번길 21,경기도 군포시 산본동 1112-4,37.3667968,126.9244545,3667.1,,,,,,1997-08-02,경기도 군포시청,031-390-0478,2022-07-22
41410-00115,새터어린이공원,어린이공원,경기도 군포시 송부로221번길 3-15,경기도 군포시 부곡동 1081,37.32294891,126.9329679,2116.2,,,,,,2003-06-20,경기도 군포시청,031-390-0478,2022-07-22
41450-00025,풍산지구근린2호,근린공원,경기도 하남시 덕풍서로 21,경기도 하남시 덕풍동 776,37.5505286,127.201221,16167,엑스게임장,,화장실,야외무대,,2008-12-31,경기도 하남시청,031-790-6415,2022-07-04
41450-00026,풍산지구근린3호,근린공원,경기도 하남시 덕풍북로 180,경기도 하남시 덕풍동 739,37.5533776,127.208436,101301,배드민턴장+농구장,물놀이장,화장실,야외무대,,2008-12-31,경기도 하남시청,031-790-6415,2022-07-04
41450-00027,풍산지구근린4호,근린공원,경기도 하남시 덕풍남로 11,경기도 하남시 덕풍동 824,37.54678342,127.209885,17607,,조합놀이대+그네+시소+흔들놀이,화장실,,,2008-12-31,경기도 하남시청,031-790-6415,2022-07-04
41450-00028,덕풍근린공원,근린공원,경기도 하남시 덕풍공원로 110,경기도 하남시 덕풍동 435-219,37.53514428,127.1984476,99250,배드민턴장+게이트볼장,조합놀이대+시소+흔들놀이,화장실,,,2013-03-27,경기도 하남시청,031-790-6415,2022-07-04
41450-00001,꿈나무공원,어린이공원,경기도 하남시 신장로48번길 5,경기도 하남시 천현동 615,37.53520709,127.2120701,2283,,조합놀이대+그네+시소,화장실,,,2008-08-21,경기도 하남시청,031-790-6415,2022-07-04
41450-00002,새고향공원,어린이공원,경기도 하남시 대청로59번길 37,경기도 하남시 신장동 527-2,37.54311989,127.2188592,1765,,조합놀이대+그네+시소+흔들놀이,화장실,,,2008-08-21,경기도 하남시청,031-790-6415,2022-07-04
41450-00003,꿈동산공원,어린이공원,경기도 하남시 대청로22번길 9-5,경기도 하남시 신장동 528-4,37.54030454,127.2152799,1555,,조합놀이대+그네+시소,화장실,,,2008-08-21,경기도 하남시청,031-790-6415,2022-07-04
41450-00004,새희망공원,어린이공원,경기도 하남시 더우개로 23,경기도 하남시 신장동 528-2,37.54074468,127.2208935,1511,,조합놀이대+그네+시소+흔들놀이,화장실,,,2008-08-21,경기도 하남시청,031-790-6415,2022-07-04
41450-00005,새나라공원,어린이공원,경기도 하남시 대청로137번길 12,경기도 하남시 창우동 518-1,37.53951993,127.2281541,3280,농구장,조합놀이대+그네+시소+흔들놀이,화장실,,,2008-08-21,경기도 하남시청,031-790-6415,2022-07-04
41450-00006,은방울공원,어린이공원,경기도 하남시 대청로 99,경기도 하남시 창우동 518-4,37.54065829,127.2237537,3495,,조합놀이대+그네+시소+흔들놀이,화장실,,,2008-08-21,경기도 하남시청,031-790-6415,2022-07-04
41450-00007,꿈나라공원,어린이공원,경기도 하남시 천현로 109,경기도 하남시 창우동 520-5,37.53742662,127.2221645,2762,,조합놀이대+그네+시소+흔들놀이+기타,화장실,,,2008-08-21,경기도 하남시청,031-790-6415,2022-07-04
41450-00008,꿈돌이공원,어린이공원,경기도 하남시 천현로 113,경기도 하남시 창우동 521-7,37.53645923,127.2229672,3088,,조합놀이대+그네,화장실,,,2008-08-21,경기도 하남시청,031-790-6415,2022-07-04
41450-00009,한 솔 공 원,어린이공원,경기도 하남시 덕산로 75,경기도 하남시 덕풍동 680,37.53560688,127.1955116,1390,,조합놀이대+그네+시소+흔들놀이,화장실,,,2008-08-21,경기도 하남시청,031-790-6415,2022-07-04
41450-00012,자이공원,어린이공원,경기도 하남시 덕풍공원로 40-1,경기도 하남시 덕풍동 363-25,37.5399611,127.197341,1863,농구장,조합놀이대+시소+흔들놀이,화장실,,,2008-08-21,경기도 하남시청,031-790-6415,2022-07-04
41450-00013,풍산지구 어린이1호,어린이공원,경기도 하남시 덕풍북로105번길 1,경기도 하남시 덕풍동 700,37.5552932,127.2011629,1536,,조합놀이대+그네+흔들놀이,,,,2008-12-31,경기도 하남시청,031-790-6415,2022-07-04
41450-00014,하남해터지구,어린이공원,경기도 하남시 하남대로 856,경기도 하남시 덕풍동 946-4,37.54365829,127.2039831,1500,,조합놀이대+그네+흔들놀이대,,,,2008-08-21,경기도 하남시청,031-790-6415,2022-07-04
41450-00014,풍산지구 어린이2호,어린이공원,경기도 하남시 덕풍북로 2,경기도 하남시 덕풍동 709,37.54651851,127.198428,6852,,조합놀이대+그네+시소+흔들놀이,,,,2008-12-31,경기도 하남시청,031-790-6415,2022-07-04
41450-00015,풍산지구 어린이3호,어린이공원,경기도 하남시 덕풍북로99번길 1,경기도 하남시 덕풍동 716,37.55483266,127.2007135,1521,,조합놀이대+그네+흔들놀이,,,,2008-12-31,경기도 하남시청,031-790-6415,2022-07-04
41450-00016,풍산지구 어린이4호,어린이공원,경기도 하남시 덕풍동로 30,경기도 하남시 덕풍동 770-2,37.54546024,127.2060837,1661,,조합놀이대+그네+시소+회전놀이+흔들놀이,,,,2008-12-31,경기도 하남시청,031-790-6415,2022-07-04
41450-00017,풍산지구 어린이5호,어린이공원,경기도 하남시 덕풍동로 113,경기도 하남시 덕풍동 745-1,37.55148856,127.2087937,1767,,,,,,2008-12-31,경기도 하남시청,031-790-6415,2022-07-04
41450-00018,풍산지구 어린이6호,어린이공원,경기도 하남시 덕풍북로 210,경기도 하남시 덕풍동 749,37.55159944,127.2108446,7235,,,,,,2008-12-31,경기도 하남시청,031-790-6415,2022-07-04
41450-00019,풍산지구 어린이7호,어린이공원,경기도 하남시 덕풍북로 260,경기도 하남시 덕풍동 795,37.54855781,127.2091929,4339,,조합놀이대+그네+시소+흔들놀이,,,,2008-12-31,경기도 하남시청,031-790-6415,2022-07-04
41450-00020,풍산지구 어린이8호,어린이공원,경기도 하남시 덕풍북로259번길 7,경기도 하남시 덕풍동 812,37.54772002,127.2101321,1537,,조합놀이대+그네+시소+흔들놀이,,,,2008-12-31,경기도 하남시청,031-790-6415,2022-07-04
41450-00021,신장근린공원,근린공원,경기도 하남시 하남대로 740,경기도 하남시 신장동 520-2,37.5378807,127.214376,13912,,,화장실,,,1991-03-15,경기도 하남시청,031-790-6415,2022-07-04
41450-00022,창우근린공원,근린공원,경기도 하남시 대청로116번길 37,경기도 하남시 창우동 521-4,37.5377179,127.224405,10000,게이트볼장,조합놀이대+그네+시소+흔들놀이,화장실,,,2008-08-21,경기도 하남시청,031-790-6415,2022-07-04
41450-00023,미사근린공원,근린공원,경기도 하남시 미사대로 505,경기도 하남시 미사동 15,37.553625,127.2132314,772590,축구장+족구장+조정경기장,,화장실+매점+주차장,,,2008-08-21,경륜경정사업본부,031-790-6415,2022-07-04
41450-00024,풍산지구근린1호,근린공원,경기도 하남시 덕풍북로 100,경기도 하남시 덕풍동 732,37.55438461,127.2013913,22245,,,화장실,,,2008-12-31,경기도 하남시청,031-790-6415,2022-07-04
41480-00030,금능어린이공원,어린이공원,경기도 파주시 쇠재안길 13,경기도 파주시 금능동 442-1번지,37.7518722,126.7798038,1500,,조합놀이대,,,,2004-11-01,경기도 파주시 공원관리과,031-940-5381,2022-04-29
41135-00013,중앙공원,근린공원,경기도 성남시 분당구 성남대로 550,"경기도 성남시 분당구 수내동 65, 66",37.38030721,127.1211791,420982.1,배드민턴장+게이트볼장+체력단련장,,화장실+전망대,야외공연장+지방문화재보호구역,동물놀이터,1990-06-22,경기도 성남시 공원과,031-729-4382,2022-11-13
41135-00014,황새울공원,체육공원,경기도 성남시 분당구 황새울로 287,"경기도 성남시 분당구 수내동 42, 43",37.38325482,127.1181442,37957,다목적체육관+풋살장,,화장실+주차장,,,1990-06-22,경기도 성남시 공원과,031-729-4382,2022-11-13
41410-00053,노루목어린이공원,어린이공원,경기도 군포시 고산로724번길 16,경기도 군포시 산본동 80-3,37.37319798,126.9383136,1771.1,,,,,,1988-12-31,경기도 군포시청,031-390-0478,2022-07-22
41410-00057,바위백이어린이공원,어린이공원,경기도 군포시 군포로735번길 15-4,경기도 군포시 산본동 242,37.37046299,126.9425773,1500,,,,,,1993-06-25,경기도 군포시청,031-390-0478,2022-07-22
41410-00044,퇴계어린이공원,어린이공원,경기도 군포시 광정로 25-20,경기도 군포시 금정동 875-3,37.35334734,126.9301532,1500,,,,,,1991-11-15,경기도 군포시청,031-390-0478,2022-07-22
41410-00045,소월어린이공원,어린이공원,경기도 군포시 오금로 34,경기도 군포시 금정동 871-9,37.35136878,126.9325016,1598.1,,,,,,1994-09-15,경기도 군포시청,031-390-0478,2022-07-22
41410-00055,회목안어린이공원,어린이공원,경기도 군포시 산본천로179번길 26,경기도 군포시 산본동 214,37.37081936,126.9374389,2348.3,,,,,,1985-12-30,경기도 군포시청,031-390-0478,2022-07-22
41410-00059,수리약수터어린이공원,어린이공원,경기도 군포시 곡란로74번길 24,경기도 군포시 산본동 1074,37.37366869,126.9281293,1501.5,,,,,,1994-09-15,경기도 군포시청,031-390-0478,2022-07-22
41410-00065,안금정어린이공원,어린이공원,경기도 군포시 금산로6번길 21,경기도 군포시 금정동 724-6,37.36388083,126.9422315,2501.8,,,,,,1993-06-09,경기도 군포시청,031-390-0478,2022-07-22
41410-00020,한얼공원,근린공원,경기도 군포시 청백리길 18,경기도 군포시 금정동 844-1,37.36258429,126.9332329,150333.7,,,,,,1994-09-15,경기도 군포시청,031-390-0474,2022-07-22
41410-00031,솔거어린이공원,어린이공원,경기도 군포시 산본천로 43-68,경기도 군포시 산본동 1146-20,37.36069398,126.924894,1502.7,,,,,,1994-09-15,경기도 군포시청,031-390-0478,2022-07-22
41410-00081,능내어린이공원,어린이공원,경기도 군포시 고산로643번길 10,경기도 군포시 산본동 1065-3,37.36924017,126.9313359,1500,,,,,,1991-11-15,경기도 군포시청,031-390-0478,2022-07-22
41410-00083,앞산어린이공원,어린이공원,경기도 군포시 군포로476번안길 8,경기도 군포시 당동 900-1,37.349127,126.9457714,2000,,,,,,1997-12-11,경기도 군포시청,031-390-0478,2022-07-22
41410-00075,참말어린이공원,어린이공원,경기도 군포시 당산로 55,경기도 군포시 당동 741,37.35656849,126.9449544,1490.4,,,,,,1995-05-19,경기도 군포시청,031-390-0478,2022-07-22
41410-00088,해오름어린이공원,어린이공원,경기도 군포시 군포로476번길 58-12,경기도 군포시 당동 980-2,37.34823199,126.9473354,4117.2,,,,,,1999-03-04,경기도 군포시청,031-390-0478,2022-07-22
41410-00067,밤골어린이공원,어린이공원,경기도 군포시 금산로7번길 34,경기도 군포시 금정동 711-4,37.3626063,126.9393014,2487.8,,,,,,1995-05-19,경기도 군포시청,031-390-0478,2022-07-22
41410-00097,햇님어린이공원,어린이공원,경기도 군포시 한세로78번길 14,경기도 군포시 당정동 977-3,37.34806584,126.9571357,1790,,,,,,1999-03-04,경기도 군포시청,031-390-0478,2022-07-22
41410-00100,별님어린이공원,어린이공원,경기도 군포시 한세로16번길 10,경기도 군포시 당정동 1003-2,37.34527928,126.9510066,3121.1,,,,,,1999-03-04,경기도 군포시청,031-390-0478,2022-07-22
41410-00072,제일어린이공원,어린이공원,경기도 군포시 군포로615번길 17,경기도 군포시 금정동 755,37.3605339,126.9469011,9673.7,,,,,,1994-12-06,경기도 군포시청,031-390-0478,2022-07-22
41410-00078,당말어린이공원,어린이공원,경기도 군포시 군포로528번길 16,경기도 군포시 당동 779,37.35266206,126.946689,1500.8,,,,,,1991-01-11,경기도 군포시청,031-390-0478,2022-07-22
41410-00079,효자어린이공원,어린이공원,경기도 군포시 당동로18번길 27,경기도 군포시 당동 773-4,37.35164847,126.943331,1597.4,,,,,,1997-08-02,경기도 군포시청,031-390-0478,2022-07-22
41800-00003,은대근린공원,근린공원,경기도 연천군 전곡읍 은전로 47,경기도 연천군 전곡읍 은대리 573,38.02808738,127.0649757,92960,,,,,,2009-08-12,경기도 연천군청,031-839-2346,2022-07-07
41800-00014,신서수변공원,수변공원,경기도 연천군 신서면 도대로 17-8,경기도 연천군 신서면 대광리 1318-42,38.18767738,127.1062823,5369,,,,,,2014-06-12,경기도 연천군청,031-839-2346,2022-07-07
41800-00013,고문리공원,소공원,경기도 연천군 연천읍 현문로508번길 211,경기도 연천군 연천읍 고문리 898,38.0623778,127.1289227,3820,,,,,,2006-10-16,경기도 연천군청,031-839-2346,2022-07-07
41800-00009,휴먼시아 어린이공원(전곡5호),어린이공원,경기도 연천군 전곡읍 밤골로 8,경기도 연천군 전곡읍 전곡리 704,38.01663841,127.0712016,2230,,,,,,2006-10-16,경기도 연천군청,031-839-2346,2022-07-07
41800-00006,현가근린공원,근린공원,경기도 연천군 연천읍 문화로 173,경기도 연천군 연천읍 현가리 57-1,38.10909932,127.0789855,11452,,,,,,2006-05-15,경기도 연천군청,031-839-2346,2022-07-07
41800-00005,전곡근린공원,근린공원,경기도 연천군 전곡읍 선사로 458번길 42,경기도 연천군 전곡읍 전곡리 355-1,38.02917424,127.0735555,53030,,,,,,2003-12-01,경기도 연천군청,031-839-2346,2022-07-07
41800-00002,옥산근린공원,근린공원,경기도 연천군 연천읍 차옥로 20,경기도 연천군 연천읍 옥산리 423-1,38.09628974,127.078233,13020,,,,,,2006-05-15,경기도 연천군청,031-839-2346,2022-07-07
41117-00062,매여울,어린이공원,경기도 수원시 영통구 매탄로 82,경기도 수원시 영통구 매탄동 1275,37.25833791,127.0430012,2312.2,다목적구장(농구)1,조합놀이대1,,,,,경기도 수원시 영통구 녹지공원과,031-228-8331,2022-06-20
41117-00064,그린나래,어린이공원,경기도 수원시 영통구 동탄원천로881번길 35,경기도 수원시 영통구 매탄동 1281,37.25500972,127.0415066,2135.6,조합놀이대1+ 휴게쉼터,조합놀이대1,,,,,경기도 수원시 영통구 녹지공원과,031-228-8331,2022-06-20
41117-00067,소담,어린이공원,경기도 수원시 영통구 태장로 84,경기도 수원시 영통구 망포동 544-13,37.238967,127.0555283,907,,,,,,,경기도 수원시 영통구 녹지공원과,031-228-8331,2022-06-20
41117-00034,무지개,어린이공원,경기도 수원시 영통구 매여울로 68번길 23,경기도 수원시 영통구 매탄동 101-16,37.2730117,127.0450275,1616.2,,조합놀이대1,,,,,경기도 수원시 영통구 녹지공원과,031-228-8331,2022-06-20
41117-00035,미래,어린이공원,경기도 수원시 영통구 매여울로 10번길 14-20,경기도 수원시 영통구 매탄동 196-25,37.27168445,127.0473854,1507.3,,조합놀이대1,노인정1,,,,경기도 수원시 영통구 녹지공원과,031-228-8331,2022-06-20
41117-00036,산남,어린이공원,경기도 수원시 영통구 매봉로 35번길 43,경기도 수원시 영통구 매탄동 111-107,37.27170482,127.0504251,1595.5,,조합놀이대1,노인정1,,,,경기도 수원시 영통구 녹지공원과,031-228-8331,2022-06-20
41117-00038,산샘,어린이공원,경기도 수원시 영통구 매원로11번길 8-16,경기도 수원시 영통구 매탄동 205-32,37.26714647,127.0482123,1940.1,,조합놀이대1,노인정1,,,,경기도 수원시 영통구 녹지공원과,031-228-8331,2022-06-20
41117-00039,마루터기,어린이공원,경기도 수원시 영통구 산남로 4번길 27,경기도 수원시 영통구 매탄동 861,37.26385648,127.0487029,1815.6,,조합놀이대1,노인정1,,,,경기도 수원시 영통구 녹지공원과,031-228-8331,2022-06-20
41117-00040,먼내,어린이공원,경기도 수원시 영통구 동탄원천로 1109번길 22,경기도 수원시 영통구 원천동 463-1,37.26957867,127.0576438,1523,,조합놀이대1,,,,,경기도 수원시 영통구 녹지공원과,031-228-8331,2022-06-20
41117-00046,해오름,어린이공원,경기도 수원시 영통구 영통로 514번길 53,경기도 수원시 영통구 영통동 948-5,37.26491233,127.0813304,3824.7,다목적구장(농구),조합놀이대1,,,,,경기도 수원시 영통구 녹지공원과,031-228-8331,2022-06-20
41117-00047,달래,어린이공원,경기도 수원시 영통구 봉영로 1744번길 11,경기도 수원시 영통구 영통동 1053-3,37.26663771,127.0830516,4220.7,다목적구장(농구),조합놀이대1,,,,,경기도 수원시 영통구 녹지공원과,031-228-8331,2022-06-20
41117-00048,미로,어린이공원,경기도 수원시 영통구 청명북로 118,경기도 수원시 영통구 영통동 955-2,37.26185806,127.0781262,4969.3,다목적구장(농구),,,,,,경기도 수원시 영통구 녹지공원과,031-228-8331,2022-06-20
41117-00050,푸른,어린이공원,경기도 수원시 영통구 영통로 438,경기도 수원시 영통구 영통동 957-1,37.25905057,127.0739487,5019.3,다목적구장,조합놀이대1,,,,,경기도 수원시 영통구 녹지공원과,031-228-8331,2022-06-20
41117-00052,수정,어린이공원,경기도 수원시 영통구 청명로 59번길 7-16,경기도 수원시 영통구 영통동 1031,37.25175741,127.0800835,2641.1,,조합놀이대1,,,,,경기도 수원시 영통구 녹지공원과,031-228-8331,2022-06-20
41117-00053,으뜸,어린이공원,경기도 수원시 영통구 매영로 421-7,경기도 수원시 영통구 영통동 1017,37.24911008,127.0774793,2087.9,,조합놀이대1,노인정1,,,,경기도 수원시 영통구 녹지공원과,031-228-8331,2022-06-20
41117-00054,풀잎,어린이공원,경기도 수원시 영통구 봉영로 1526,경기도 수원시 영통구 영통동 988-3,37.24851981,127.0696446,8360.4,다목적구장(농구)1,조합놀이대1,,,,,경기도 수원시 영통구 녹지공원과,031-228-8331,2022-06-20
41117-00057,박지성,어린이공원,경기도 수원시 영통구 봉영로 1517번길 40,경기도 수원시 영통구 영통동 967-3,37.24989846,127.0660942,6968.8,다목적구장(농구+풋살)2,조합놀이대1,,,,,경기도 수원시 영통구 녹지공원과,031-228-8331,2022-06-20
41115-00022,화서오거리,어린이공원,경기도 수원시 팔달구 동말로 47번길 24-10,경기도 수원시 팔달구 화서동 116-3,37.27966634,126.9997294,1000,,조합놀이대1,,,,,경기도 수원시 팔달구 녹지공원과,031-228-7043,2022-06-20
41115-00026,선재미,어린이공원,경기도 수원시 팔달구 수성로 157번길 27-18,경기도 수원시 팔달구 화서동 678-1,37.28751929,126.9890251,1775.3,,조합놀이대1,노인정1,,,,경기도 수원시 팔달구 녹지공원과,031-228-7043,2022-06-20
41115-00030,네버랜드,어린이공원,경기도 수원시 팔달구덕영대로 735번길 18,경기도 수원시 팔달구 화서동 657,37.28135952,126.9925868,1500,농구장,조합놀이대1,,,,,경기도 수원시 팔달구 녹지공원과,031-228-7043,2022-06-20
41117-00032,참새,어린이공원,경기도 수원시 영통구 매탄로 65번길 17,경기도 수원시 영통구 매탄동 1166-2,37.25704329,127.0404504,1502.3,,조합놀이대1,노인정1,,,,경기도 수원시 영통구 녹지공원과,031-228-8331,2022-06-20
41117-00033,혜성,어린이공원,경기도 수원시 영통구 동수원로 286번길 33-3,경기도 수원시 영통구 매탄동 1177,37.25488673,127.0379939,2287.3,다목적구장(농구)1,조합놀이대1,노인정1,,,,경기도 수원시 영통구 녹지공원과,031-228-8331,2022-06-20
41115-00043,67호소공원,소공원,경기도 수원시 팔달구 화서문로 75,경기도 수원시 팔달구 북수동 69,37.28609837,127.0162903,439,,휴게쉼터,,,,,경기도 수원시 팔달구 녹지공원과,031-228-7043,2022-06-20
41115-00044,73호소공원,소공원,경기도 수원시 팔달구 팔달문로 57번길 79,경기도 수원시 팔달구 지동 465,37.28273023,127.0240013,140,,휴게쉼터,,,,,경기도 수원시 화성사업소 문화유산시설과,031-228-4473,2022-06-20
41115-00042,66호소공원,소공원,경기도 수원시 팔달구 팔달로165번길 34-2,,37.28344168,127.0048542,347,,휴게쉼터,,,,,경기도 수원시 화성사업소 문화유산시설과,031-228-4473,2022-06-20
41115-00007,아낌없이주는나무,어린이공원,경기도 수원시 팔달구 세지로 399번길 46,,37.28716691,127.0278678,3146.7,다목적구장노인정1 +다목적구장(풋살+게이트볼)2,조합놀이대1,노인정1,,,,경기도 수원시 팔달구 녹지공원과,031-228-7043,2022-06-20
41115-00008,당산,어린이공원,경기도 수원시 팔달구 세지로 436,경기도 수원시 팔달구 우만동 500,37.28706853,127.0320989,5379.9,다목적구장,조합놀이대1,노인정1,,,,경기도 수원시 팔달구 녹지공원과,031-228-7043,2022-06-20
41115-00009,못골,어린이공원,경기도 수원시 팔달구 팔달문로 115번길 43,경기도 수원시 팔달구 지동 473,37.2834799,127.027695,3257,,조합놀이대1,노인정1+화장실1,,,,경기도 수원시 팔달구 녹지공원과,031-228-7043,2022-06-20
41115-00010,청록,어린이공원,경기도 수원시 팔달구 경수대로 616번길 32,경기도 수원시 팔달구 우만동 560,37.28091621,127.0321865,2275.4,,조합놀이대1,노인정1,,,,경기도 수원시 팔달구 녹지공원과,031-228-7043,2022-06-20
41115-00011,반달,어린이공원,경기도 수원시 팔달구 장다리로 219번길 16,경기도 수원시 팔달구 인계동 973,37.26967298,127.024921,4665.5,다목적구장2(농구+게이트볼) 인라인스케이트장1,조합놀이대1,노인정1+화장실1,,,,경기도 수원시 팔달구 녹지공원과,031-228-7043,2022-06-20
41113-00079,하늬,어린이공원,경기도 수원시 권선구 구운로 73번길 10-14,경기도 수원시 권선구 구운동 941-1,37.28067947,126.9723015,2143,다목적구장(배드민턴)1,조합놀이대1,,,,,경기도 수원시 권선구 녹지공원과,031-228-6195,2022-06-20
41113-00081,사랑,어린이공원,경기도 수원시 권선구 구운로 45번길 34-7,경기도 수원시 권선구 구운동 966,37.27714009,126.9718878,2375,다목적구장(배드민턴)1,조합놀이대1,,,,,경기도 수원시 권선구 녹지공원과,031-228-6195,2022-06-20
41113-00090,별빛,어린이공원,경기도 수원시 권선구 덕영대로 1323번길 25-30,경기도 수원시 권선구 권선동 1313,37.24810467,127.033795,2000.2,,조합놀이대1,,,음수대1,,경기도 수원시 권선구 녹지공원과,031-228-6195,2022-06-20
41113-00094,장교둑,어린이공원,경기도 수원시 권선구 세지로 82번길 15-5,경기도 수원시 권선구 권선동 980-1,37.2591911,127.0188716,2068,,조합놀이대1,화장실1,,,,경기도 수원시 권선구 녹지공원과,031-228-6195,2022-06-20
41113-00096,고래의모험,어린이공원,경기도 수원시 권선구 덕영대로 1070번길 56,경기도 수원시 권선구 세류동 1066-9,37.25248056,127.0090813,1553,,물놀이시설1,,,,,경기도 수원시 권선구 녹지공원과,031-228-6195,2022-06-20
41113-00055,재간령,어린이공원,경기도 수원시 권선구 경수대로 235번길 68-4,경기도 수원시 권선구 세류동 1135,37.24951633,127.0143373,1496.6,다목적구장(배드민턴)1,조합놀이대2,노인정1,,,,경기도 수원시 권선구 녹지공원과,031-228-6195,2022-06-20
41113-00056,장승배기,어린이공원,경기도 수원시 권선구 세지로 42번길 25-8,경기도 수원시 권선구 세류동 1086,37.25592118,127.0179275,1497.1,,조합놀이대1,,,,,경기도 수원시 권선구 녹지공원과,031-228-6195,2022-06-20
41113-00057,은하수,어린이공원,경기도 수원시 권선구 구운로 86번길 20-21,경기도 수원시 권선구 구운동 487,37.27982195,126.9734779,1723.1,,조합놀이대1,화장실1,,,,경기도 수원시 권선구 녹지공원과,031-228-6195,2022-06-20
41113-00058,하구운,어린이공원,경기도 수원시 권선구 구운로 45번길 59-46,경기도 수원시 권선구 구운동 524,37.27633658,126.9728353,1995.8,,조합놀이대1,화장실1+노인정1,,,,경기도 수원시 권선구 녹지공원과,031-228-6195,2022-06-20
41113-00060,용화출,어린이공원,경기도 수원시 권선구 권중로 7번길 18,경기도 수원시 권선구 권선동 1163-7,37.25632088,127.0339841,1501,,조합놀이대1,,,음수대1,,경기도 수원시 권선구 녹지공원과,031-228-6195,2022-06-20
41113-00061,안용,어린이공원,경기도 수원시 권선구 동수원로 146번길 16-10,경기도 수원시 권선구 곡반정동 523,37.24340039,127.0322652,5568.1,,조합놀이대1,노인정1,,약수대2,,경기도 수원시 권선구 녹지공원과,031-228-6195,2022-06-20
41113-00068,권선,어린이공원,경기도 수원시 권선구 경수대로 302번길 29,경기도 수원시 권선구 권선동 1185-2,37.25347243,127.0230507,2974.4,다목적구장(배드민턴+족구)2,조합놀이대1,화장실1,,,,경기도 수원시 권선구 녹지공원과,031-228-6195,2022-06-20
41113-00070,다정,어린이공원,경기도 수원시 권선구 경수대로 302번길 32,경기도 수원시 권선구 권선동 1188-2,37.25271498,127.0222966,2809,다목적구장(족구)1,조합놀이대1,화장실1,,,,경기도 수원시 권선구 녹지공원과,031-228-6195,2022-06-20
41113-00071,버드내,어린이공원,경기도 수원시 권선구 수원천로 24,경기도 수원시 권선구 세류동 463-1,37.25735256,127.0096088,2003.6,,조합놀이대1,노인정1,,,,경기도 수원시 권선구 녹지공원과,031-228-6195,2022-06-20
41111-00035,초록,어린이공원,경기도 수원시 장안구 천천로 74번길 50,경기도 수원시 장안구 정자동 915,37.29693844,126.9870001,2204.1,,조합놀이대1+원형무대1,,,,,경기도 수원시 장안구 녹지공원과,031-228-5995,2022-06-20
41111-00037,청솔,어린이공원,경기도 수원시 장안구 만석로 20번길 28,경기도 수원시 장안구 정자동 921,37.29385892,126.9844114,2000.1,다목적구장(농구)1,조합놀이대1,,,,,경기도 수원시 장안구 녹지공원과,031-228-5995,2022-06-20
41111-00038,솔뫼,어린이공원,경기도 수원시 장안구 천천로 21번길 11,경기도 수원시 장안구 정자동 924,37.2934661,126.9869171,6028.5,다목적구장(농구)2,조합놀이대1,,,,,경기도 수원시 장안구 녹지공원과,031-228-5995,2022-06-20
41111-00040,대평,어린이공원,경기도 수원시 장안구 만석로 68번길 10,경기도 수원시 장안구 정자동 870-2,37.29674446,126.9889194,3000.1,,조합놀이대1,,,,,경기도 수원시 장안구 녹지공원과,031-228-5995,2022-06-20
41111-00041,백설,어린이공원,경기도 수원시 장안구 정자천로 133번길 26,경기도 수원시 장안구 정자동 879-2,37.29513422,126.9911147,2999.9,다목적구장(농구)2,조합놀이대1,,,,,경기도 수원시 장안구 녹지공원과,031-228-5995,2022-06-20
41111-00043,명인,어린이공원,경기도 수원시 장안구 정자천로 188번길 28,경기도 수원시 장안구 정자동 884-5,37.29497112,126.9955839,2000.1,다목적구장(배드민턴+족구)1,,,,,,경기도 수원시 장안구 녹지공원과,031-228-5995,2022-06-20
41111-00047,화산,어린이공원,경기도 수원시 장안구 화산로 85,경기도 수원시 장안구 천천동 336-1,37.29115659,126.9805545,2000,조합놀이대1+ 음수대1+휴게쉼터,조합놀이대1,,,음수대1,,경기도 수원시 장안구 녹지공원과,031-228-5995,2022-06-20
41111-00048,정천,어린이공원,경기도 수원시 장안구 화산로 85,경기도 수원시 장안구 천천동 336-2,37.29115659,126.9805545,4100,조합놀이대1+ 음수대1+휴게쉼터,조합놀이대1,,,음수대1,,경기도 수원시 장안구 녹지공원과,031-228-5995,2022-06-20
41113-00049,장대산,어린이공원,경기도 수원시 권선구 장다리로 97,경기도 수원시 권선구 권선동 985,37.25903418,127.0212921,1499,,조합놀이대1,노인정1,,음수대1,,경기도 수원시 권선구 녹지공원과,031-228-6195,2022-06-20
41113-00051,문화,어린이공원,경기도 수원시 권선구 세지로 12번길 45,경기도 수원시 권선구 세류동 1106,37.25265544,127.0173046,1487.8,,조합놀이대2,노인정1,,음수대1,,경기도 수원시 권선구 녹지공원과,031-228-6195,2022-06-20
41117-00028,지성,근린공원,경기도 수원시 영통구 동탄지성로 520,경기도 수원시 영통구 망포동 755,37.23882922,127.0463235,15320.6,게이트볼장1+다목적구장1,,화장실1,,,,경기도 수원시 영통구 녹지공원과,031-228-8331,2022-06-20
41117-00030,신동수변공원,수변공원,경기도 수원시 영통구 덕영대로 1373번길 66,경기도 수원시 영통구 신동 942,37.24740815,127.0404663,24329,,,,,,,경기도 수원시 영통구 녹지공원과,031-228-8331,2022-06-20
41111-00012,세일,어린이공원,경기도 수원시 장안구 이목로 74번길 42,경기도 수원시 장안구 파장동 561,37.31001292,126.9907275,3172,,조합놀이대1,노인정1,,,,경기도 수원시 장안구 녹지공원과,031-228-5995,2022-06-20
41111-00014,소정,어린이공원,경기도 수원시 장안구 파장로 22번길 30,경기도 수원시 장안구 파장동 603-7,37.30558378,126.9990299,4840.1,다목적구장(농구)1,조합놀이대1,,,,,경기도 수원시 장안구 녹지공원과,031-228-5995,2022-06-20
41111-00015,송죽,어린이공원,경기도 수원시 장안구 정조로 1088번길 6-6,경기도 수원시 장안구 송죽동 457,37.30222909,127.0033486,3592.4,,조합놀이대1,,,음수대1,,경기도 수원시 장안구 녹지공원과,031-228-5995,2022-06-20
41111-00016,석산,어린이공원,경기도 수원시 장안구 금당로38번길 7,경기도 수원시 장안구 조원동 731,37.3030995,127.0156152,1556,,조합놀이대2,화장실1,,,,경기도 수원시 장안구 녹지공원과,031-228-5995,2022-06-20
41111-00017,다람쥐,어린이공원,경기도 수원시 장안구 조원로111번길 33-23,경기도 수원시 장안구 조원동 758-4,37.30016231,127.0141348,1647.6,,조합놀이대1,화장실1,,,,경기도 수원시 장안구 녹지공원과,031-228-5995,2022-06-20
41111-00018,역마,어린이공원,경기도 수원시 장안구 경수대로 838,경기도 수원시 장안구 조원동 772-2,37.29686206,127.0163697,1503.2,,조합놀이대1,,,,,경기도 수원시 장안구 녹지공원과,031-228-5995,2022-06-20
41111-00019,연무,어린이공원,경기도 수원시 장안구 창훈로39번길 4,경기도 수원시 장안구 연무동 214-6,37.2961515,127.0301403,1621,,조합놀이대1,노인정1,,음수대1,,경기도 수원시 장안구 녹지공원과,031-228-5995,2022-06-20
41111-00020,창훈,어린이공원,경기도 수원시 장안구 월드컵로 418번길 31,경기도 수원시 장안구 연무동 237-15,37.29437818,127.0274999,1630.4,,조합놀이대1,노인정1,,,,경기도 수원시 장안구 녹지공원과,031-228-5995,2022-06-20
41111-00021,쪽박산,어린이공원,경기도 수원시 장안구 경수대로 754번길 59,경기도 수원시 장안구 연무동 252-1,37.29318313,127.0237829,1500,,조합놀이대1,노인정1,,,,경기도 수원시 장안구 녹지공원과,031-228-5995,2022-06-20
41111-00022,일림,어린이공원,경기도 수원시 장안구 수일로 104번길 20,경기도 수원시 장안구 파장동 629,37.30864072,127.001409,1632,,조합놀이대1,노인정1,,음수대1,,경기도 수원시 장안구 녹지공원과,031-228-5995,2022-06-20
41111-00023,정자,어린이공원,경기도 수원시 장안구 송정로60번길 10-23,경기도 수원시 장안구 정자동 35-22,37.29552819,127.0025669,3238,다목적구장(농구)1,조합놀이대1,노인정1,,,,경기도 수원시 장안구 녹지공원과,031-228-5995,2022-06-20
41111-00024,영화,어린이공원,경기도 수원시 장안구 수성로340번길 30,경기도 수원시 장안구 영화동 412,37.29132609,127.0099231,5110.7,농구장1+ 다목적구장(게이트볼)1,조합놀이대1,화장실1,,음수대1,,경기도 수원시 장안구 녹지공원과,031-228-5995,2022-06-20
41111-00026,대추원,어린이공원,경기도 수원시 장안구 금당로 39번길 33,경기도 수원시 장안구 조원동 854,37.30451968,127.0151755,2160,,조합놀이대1,,,,,경기도 수원시 장안구 녹지공원과,031-228-5995,2022-06-20
41111-00028,금당,어린이공원,경기도 수원시 장안구 금당로 39번길 34,경기도 수원시 장안구 조원동 862,37.30439047,127.0178064,2150,,조합놀이대1,,,,,경기도 수원시 장안구 녹지공원과,031-228-5995,2022-06-20
41111-00029,별,어린이공원,경기도 수원시 장안구 하률로 46번길 22,경기도 수원시 장안구 천천동 565-1,37.30267863,126.9776435,2202,,조합놀이대1,,,,,경기도 수원시 장안구 녹지공원과,031-228-5995,2022-06-20
41111-00030,달,어린이공원,경기도 수원시 장안구 하률로 46번길 17,경기도 수원시 장안구 천천동 566-1,37.30269384,126.9785128,3742.8,다목적구장(농구+족구)2,조합놀이대1,,,,,경기도 수원시 장안구 녹지공원과,031-228-5995,2022-06-20
41111-00032,바람,어린이공원,경기도 수원시 장안구 정자로 41번길 12,경기도 수원시 장안구 천천동 482-2,37.30115977,126.9819739,1960.6,다목적구장(족구)1,조합놀이대1,,,,,경기도 수원시 장안구 녹지공원과,031-228-5995,2022-06-20
41117-00003,청명,근린공원,경기도 수원시 영통구 봉영로 1770번길 21,경기도 수원시 영통구 영통동 1054-4,37.26747912,127.0830811,17438.6,,,화장실1,,,,경기도 수원시 영통구 녹지공원과,031-228-8331,2022-06-20
41117-00004,황골,근린공원,경기도 수원시 영통구 영통로 530,경기도 수원시 영통구 영통동 948-2,37.26631944,127.0785929,15013.4,농구장1+다목적구장1,,화장실1,,,,경기도 수원시 영통구 녹지공원과,031-228-8331,2022-06-20
41117-00005,영통사,근린공원,경기도 수원시 영통구 봉영로 1658,경기도 수원시 영통구 영통동 1048-4,37.25783542,127.0780384,9932.7,,인공폭포1,,,,,경기도 수원시 영통구 녹지공원과,031-228-8331,2022-06-20
41117-00006,영통중앙,근린공원,경기도 수원시 영통구 청명로 151,경기도 수원시 영통구 영통동961-1,37.25718685,127.0720587,137062.5,,,화장실4,,도서관,,경기도 수원시 영통구 녹지공원과,031-228-8331,2022-06-20
41117-00007,반달,근린공원,경기도 수원시 영통구 반달로 77,경기도 수원시 영통구 영통동 1012-4,37.25087449,127.0788585,16015.3,,,,,,,경기도 수원시 영통구 녹지공원과,031-228-8331,2022-06-20
41117-00008,살구골,근린공원,경기도 수원시 영통구 매영로 366,경기도 수원시 영통구 영통동 989-3,37.25066343,127.0716869,11753.7,농구장1,,화장실1,,,,경기도 수원시 영통구 녹지공원과,031-228-8331,2022-06-20
41117-00009,벽적골,근린공원,경기도 수원시 영통구 덕영대로 1555번길 60,경기도 수원시 영통구 영통동 969-2,37.24867774,127.0618933,13502.4,농구장1+배드민턴장1+족구장1,물놀이시설1,화장실1,,,,경기도 수원시 영통구 녹지공원과,031-228-8331,2022-06-20
41117-00010,교통,근린공원,경기도 수원시 영통구 덕영대로 1570,경기도 수원시 영통구 영통동 981-4,37.24539567,127.0627739,31805,,바닥분수1,화장실1,,교통안전교육장1,,경기도 수원시 영통구 녹지공원과,031-228-8331,2022-06-20
